{
"type": "FeatureCollection",
"crs": { "type": "name", "properties": { "name": "urn:ogc:def:crs:OGC:1.3:CRS84" } },
"features": [
{ "type": "Feature", "properties": { "site_no": "6758", "road_name": "South St", "location_d": "At Bridge Over Kwinana Fwy", "traffic_ye": "2011\/12", "collection": "Volume", "mon_sun": 37580.0, "mon_fri": 40450.0, "pct_heavy_": 0.0, "pct_heavy1": 0.0, "network_pe": "No", "lg_no": "119", "lg_name": "Melville (C)", "ra_no": 7, "ra_name": "Metropolitan" }, "geometry": { "type": "Point", "coordinates": [ 115.850004026000079, -32.065830028999983 ] } },
{ "type": "Feature", "properties": { "site_no": "6760", "road_name": "South St", "location_d": "WB E of Kwinana Fwy", "traffic_ye": "2011\/12", "collection": "Volume", "mon_sun": 18760.0, "mon_fri": 20130.0, "pct_heavy_": 0.0, "pct_heavy1": 0.0, "network_pe": "No", "lg_no": "119", "lg_name": "Melville (C)", "ra_no": 7, "ra_name": "Metropolitan" }, "geometry": { "type": "Point", "coordinates": [ 115.855052037000078, -32.06589902099995 ] } },
{ "type": "Feature", "properties": { "site_no": "6761", "road_name": "Kwinana Fwy", "location_d": "NB N of Farrington Rd", "traffic_ye": "2014\/15", "collection": "Volume", "mon_sun": 47780.0, "mon_fri": 51420.0, "pct_heavy_": 0.0, "pct_heavy1": 0.0, "network_pe": "No", "lg_no": "119", "lg_name": "Melville (C)", "ra_no": 7, "ra_name": "Metropolitan" }, "geometry": { "type": "Point", "coordinates": [ 115.849741963000042, -32.073141994999958 ] } },
{ "type": "Feature", "properties": { "site_no": "6762", "road_name": "Kwinana Fwy", "location_d": "SB N of Farrington Rd", "traffic_ye": "2014\/15", "collection": "Volume", "mon_sun": 51780.0, "mon_fri": 55730.0, "pct_heavy_": 0.0, "pct_heavy1": 0.0, "network_pe": "No", "lg_no": "119", "lg_name": "Melville (C)", "ra_no": 7, "ra_name": "Metropolitan" }, "geometry": { "type": "Point", "coordinates": [ 115.849987007000081, -32.073331039999971 ] } },
{ "type": "Feature", "properties": { "site_no": "6763", "road_name": "Kwinana Fwy", "location_d": "NB N of Roe Hwy", "traffic_ye": "2014\/15", "collection": "Volume", "mon_sun": 41030.0, "mon_fri": 44160.0, "pct_heavy_": 0.0, "pct_heavy1": 0.0, "network_pe": "No", "lg_no": "119", "lg_name": "Melville (C)", "ra_no": 7, "ra_name": "Metropolitan" }, "geometry": { "type": "Point", "coordinates": [ 115.849160007000023, -32.079351996999947 ] } },
{ "type": "Feature", "properties": { "site_no": "6764", "road_name": "Kwinana Fwy", "location_d": "SB N of Roe Hwy", "traffic_ye": "2014\/15", "collection": "Volume", "mon_sun": 45650.0, "mon_fri": 47910.0, "pct_heavy_": 0.0, "pct_heavy1": 0.0, "network_pe": "No", "lg_no": "119", "lg_name": "Melville (C)", "ra_no": 7, "ra_name": "Metropolitan" }, "geometry": { "type": "Point", "coordinates": [ 115.849477978000095, -32.078599022999981 ] } },
{ "type": "Feature", "properties": { "site_no": "6765", "road_name": "Kwinana Fwy (Southbound) off to Farrington Rd", "location_d": "SB N of Farrington Rd", "traffic_ye": "2011\/12", "collection": "Class", "mon_sun": 5720.0, "mon_fri": 6300.0, "pct_heavy_": 5.9, "pct_heavy1": 7.9, "network_pe": "No", "lg_no": "119", "lg_name": "Melville (C)", "ra_no": 7, "ra_name": "Metropolitan" }, "geometry": { "type": "Point", "coordinates": [ 115.849967974000023, -32.077303987999976 ] } },
{ "type": "Feature", "properties": { "site_no": "6766", "road_name": "Farrington Rd on to Kwinana Fwy (Northbound)", "location_d": "NB N of Farrington Rd", "traffic_ye": "2013\/14", "collection": "Class", "mon_sun": 6800.0, "mon_fri": 7290.0, "pct_heavy_": 6.9, "pct_heavy1": 8.6, "network_pe": "No", "lg_no": "119", "lg_name": "Melville (C)", "ra_no": 7, "ra_name": "Metropolitan" }, "geometry": { "type": "Point", "coordinates": [ 115.848520038000061, -32.077995014999942 ] } },
{ "type": "Feature", "properties": { "site_no": "6768", "road_name": "Kwinana Fwy", "location_d": "NB S of Berrigan Rd", "traffic_ye": "2014\/15", "collection": "Volume", "mon_sun": 52480.0, "mon_fri": 56490.0, "pct_heavy_": 0.0, "pct_heavy1": 0.0, "network_pe": "No", "lg_no": "103", "lg_name": "Cockburn (C)", "ra_no": 7, "ra_name": "Metropolitan" }, "geometry": { "type": "Point", "coordinates": [ 115.855112978000079, -32.118975976999934 ] } },
{ "type": "Feature", "properties": { "site_no": "6769", "road_name": "Kwinana Fwy", "location_d": "SB S of Berrigan Rd", "traffic_ye": "2014\/15", "collection": "Volume", "mon_sun": 55830.0, "mon_fri": 60090.0, "pct_heavy_": 0.0, "pct_heavy1": 0.0, "network_pe": "No", "lg_no": "103", "lg_name": "Cockburn (C)", "ra_no": 7, "ra_name": "Metropolitan" }, "geometry": { "type": "Point", "coordinates": [ 115.855623013000013, -32.119180027999953 ] } },
{ "type": "Feature", "properties": { "site_no": "6770", "road_name": "Berrigan Dr", "location_d": "E of Kwinana Fwy", "traffic_ye": "2014\/15", "collection": "Volume", "mon_sun": 15900.0, "mon_fri": 19110.0, "pct_heavy_": 0.0, "pct_heavy1": 0.0, "network_pe": "No", "lg_no": "103", "lg_name": "Cockburn (C)", "ra_no": 7, "ra_name": "Metropolitan" }, "geometry": { "type": "Point", "coordinates": [ 115.857488018000012, -32.108432963999974 ] } },
{ "type": "Feature", "properties": { "site_no": "6771", "road_name": "Berrigan Dr", "location_d": "W of Kwinana Fwy", "traffic_ye": "2009\/10", "collection": "Class", "mon_sun": 19200.0, "mon_fri": 21240.0, "pct_heavy_": 7.4, "pct_heavy1": 9.0, "network_pe": "No", "lg_no": "103", "lg_name": "Cockburn (C)", "ra_no": 7, "ra_name": "Metropolitan" }, "geometry": { "type": "Point", "coordinates": [ 115.84654596300004, -32.110686030999943 ] } },
{ "type": "Feature", "properties": { "site_no": "6772", "road_name": "Armadale Rd", "location_d": "E of Kwinana Fwy", "traffic_ye": "2014\/15", "collection": "Class", "mon_sun": 37880.0, "mon_fri": 40770.0, "pct_heavy_": 6.3, "pct_heavy1": 8.6, "network_pe": "No", "lg_no": "103", "lg_name": "Cockburn (C)", "ra_no": 7, "ra_name": "Metropolitan" }, "geometry": { "type": "Point", "coordinates": [ 115.861487044000114, -32.127384967999944 ] } },
{ "type": "Feature", "properties": { "site_no": "6774", "road_name": "Great Eastern Hwy", "location_d": "E of Roe Hwy", "traffic_ye": "2013\/14", "collection": "Volume", "mon_sun": 39790.0, "mon_fri": 43530.0, "pct_heavy_": 0.0, "pct_heavy1": 0.0, "network_pe": "No", "lg_no": "106", "lg_name": "Mundaring", "ra_no": 7, "ra_name": "Metropolitan" }, "geometry": { "type": "Point", "coordinates": [ 116.028406959000094, -31.894424018999928 ] } },
{ "type": "Feature", "properties": { "site_no": "6775", "road_name": "Albany Hwy", "location_d": "S of Bedfordale Hill Rd", "traffic_ye": "2013\/14", "collection": "Volume", "mon_sun": 13970.0, "mon_fri": 13000.0, "pct_heavy_": 0.0, "pct_heavy1": 0.0, "network_pe": "No", "lg_no": "101", "lg_name": "Armadale (C)", "ra_no": 7, "ra_name": "Metropolitan" }, "geometry": { "type": "Point", "coordinates": [ 116.03572103100008, -32.167508001999977 ] } },
{ "type": "Feature", "properties": { "site_no": "6777", "road_name": "Woollcott Av", "location_d": "W of West Swan Rd", "traffic_ye": "2014\/15", "collection": "Class", "mon_sun": 800.0, "mon_fri": 880.0, "pct_heavy_": 10.6, "pct_heavy1": 10.8, "network_pe": "No", "lg_no": "109", "lg_name": "Swan (C)", "ra_no": 7, "ra_name": "Metropolitan" }, "geometry": { "type": "Point", "coordinates": [ 115.992386990000114, -31.831003983999949 ] } },
{ "type": "Feature", "properties": { "site_no": "6778", "road_name": "Coast Rd", "location_d": "W of West Swan Rd", "traffic_ye": "2014\/15", "collection": "Class", "mon_sun": 1390.0, "mon_fri": 1530.0, "pct_heavy_": 9.8, "pct_heavy1": 11.4, "network_pe": "No", "lg_no": "109", "lg_name": "Swan (C)", "ra_no": 7, "ra_name": "Metropolitan" }, "geometry": { "type": "Point", "coordinates": [ 115.985620012000027, -31.857592970999978 ] } },
{ "type": "Feature", "properties": { "site_no": "6781", "road_name": "Erindale Rd", "location_d": "N of Reid Hwy", "traffic_ye": "2014\/15", "collection": "Class", "mon_sun": 19360.0, "mon_fri": 21040.0, "pct_heavy_": 4.9, "pct_heavy1": 5.6, "network_pe": "No", "lg_no": "125", "lg_name": "Stirling (C)", "ra_no": 7, "ra_name": "Metropolitan" }, "geometry": { "type": "Point", "coordinates": [ 115.813107005, -31.856359974999972 ] } },
{ "type": "Feature", "properties": { "site_no": "6782", "road_name": "Baldivis Rd", "location_d": "N of Sixty Eight Rd", "traffic_ye": "2014\/15", "collection": "Class", "mon_sun": 5480.0, "mon_fri": 5750.0, "pct_heavy_": 17.8, "pct_heavy1": 17.8, "network_pe": "No", "lg_no": "107", "lg_name": "Rockingham (C)", "ra_no": 7, "ra_name": "Metropolitan" }, "geometry": { "type": "Point", "coordinates": [ 115.829433984000048, -32.361173006999934 ] } },
{ "type": "Feature", "properties": { "site_no": "6783", "road_name": "Lord St", "location_d": "S of Gnangara Rd", "traffic_ye": "2014\/15", "collection": "Class", "mon_sun": 13860.0, "mon_fri": 14720.0, "pct_heavy_": 10.0, "pct_heavy1": 11.6, "network_pe": "No", "lg_no": "109", "lg_name": "Swan (C)", "ra_no": 7, "ra_name": "Metropolitan" }, "geometry": { "type": "Point", "coordinates": [ 115.962831033000043, -31.798268039999979 ] } },
{ "type": "Feature", "properties": { "site_no": "6784", "road_name": "Robert St", "location_d": "S of Gnangara Rd", "traffic_ye": "2012\/13", "collection": "Class", "mon_sun": 950.0, "mon_fri": 1010.0, "pct_heavy_": 8.5, "pct_heavy1": 8.5, "network_pe": "No", "lg_no": "109", "lg_name": "Swan (C)", "ra_no": 7, "ra_name": "Metropolitan" }, "geometry": { "type": "Point", "coordinates": [ 115.982843002000095, -31.79854501799997 ] } },
{ "type": "Feature", "properties": { "site_no": "6785", "road_name": "Kingsway", "location_d": "W of Alexander Dr", "traffic_ye": "2013\/14", "collection": "Class", "mon_sun": 2980.0, "mon_fri": 3210.0, "pct_heavy_": 7.9, "pct_heavy1": 7.9, "network_pe": "No", "lg_no": "110", "lg_name": "Wanneroo (C)", "ra_no": 7, "ra_name": "Metropolitan" }, "geometry": { "type": "Point", "coordinates": [ 115.871079986000055, -31.813269970999951 ] } },
{ "type": "Feature", "properties": { "site_no": "6786", "road_name": "Connolly Dr", "location_d": "N of Burns Beach Rd", "traffic_ye": "2014\/15", "collection": "Class", "mon_sun": 29620.0, "mon_fri": 30920.0, "pct_heavy_": 4.2, "pct_heavy1": 5.2, "network_pe": "No", "lg_no": "131", "lg_name": "Joondalup (C)", "ra_no": 7, "ra_name": "Metropolitan" }, "geometry": { "type": "Point", "coordinates": [ 115.742116966000026, -31.723281993999933 ] } },
{ "type": "Feature", "properties": { "site_no": "6787", "road_name": "Rowley Rd", "location_d": "W of Nicholson Rd", "traffic_ye": "2013\/14", "collection": "Class", "mon_sun": 5070.0, "mon_fri": 5820.0, "pct_heavy_": 15.0, "pct_heavy1": 19.2, "network_pe": "No", "lg_no": "101", "lg_name": "Armadale (C)", "ra_no": 7, "ra_name": "Metropolitan" }, "geometry": { "type": "Point", "coordinates": [ 115.919996962000027, -32.180071023999972 ] } },
{ "type": "Feature", "properties": { "site_no": "6788", "road_name": "Orton Rd", "location_d": "E of King Rd", "traffic_ye": "2014\/15", "collection": "Class", "mon_sun": 600.0, "mon_fri": 690.0, "pct_heavy_": 11.1, "pct_heavy1": 12.9, "network_pe": "No", "lg_no": "108", "lg_name": "Serpentine - Jarrahdale", "ra_no": 7, "ra_name": "Metropolitan" }, "geometry": { "type": "Point", "coordinates": [ 115.908544963000054, -32.237015974999963 ] } },
{ "type": "Feature", "properties": { "site_no": "6789", "road_name": "Mundijong Rd", "location_d": "E of King Rd", "traffic_ye": "2014\/15", "collection": "Class", "mon_sun": 4340.0, "mon_fri": 4400.0, "pct_heavy_": 11.8, "pct_heavy1": 15.0, "network_pe": "No", "lg_no": "108", "lg_name": "Serpentine - Jarrahdale", "ra_no": 7, "ra_name": "Metropolitan" }, "geometry": { "type": "Point", "coordinates": [ 115.911869982000098, -32.293447961999952 ] } },
{ "type": "Feature", "properties": { "site_no": "6790", "road_name": "Mirrabooka Av", "location_d": "N of Marangaroo Dr", "traffic_ye": "2014\/15", "collection": "Volume", "mon_sun": 21740.0, "mon_fri": 22830.0, "pct_heavy_": 0.0, "pct_heavy1": 0.0, "network_pe": "No", "lg_no": "110", "lg_name": "Wanneroo (C)", "ra_no": 7, "ra_name": "Metropolitan" }, "geometry": { "type": "Point", "coordinates": [ 115.854478042000096, -31.834469001999935 ] } },
{ "type": "Feature", "properties": { "site_no": "6792", "road_name": "Salvado Rd", "location_d": "W of Railway Pde", "traffic_ye": "2013\/14", "collection": "Class", "mon_sun": 16490.0, "mon_fri": 17740.0, "pct_heavy_": 3.0, "pct_heavy1": 3.0, "network_pe": "No", "lg_no": "128", "lg_name": "Cambridge (T)", "ra_no": 7, "ra_name": "Metropolitan" }, "geometry": { "type": "Point", "coordinates": [ 115.824524965000023, -31.942238023999948 ] } },
{ "type": "Feature", "properties": { "site_no": "6794", "road_name": "Joondalup Dr", "location_d": "N of Shenton Av", "traffic_ye": "2014\/15", "collection": "Volume", "mon_sun": 22230.0, "mon_fri": 24110.0, "pct_heavy_": 0.0, "pct_heavy1": 0.0, "network_pe": "No", "lg_no": "131", "lg_name": "Joondalup (C)", "ra_no": 7, "ra_name": "Metropolitan" }, "geometry": { "type": "Point", "coordinates": [ 115.763701954000098, -31.737840960999957 ] } },
{ "type": "Feature", "properties": { "site_no": "6795", "road_name": "Illawarra Cr South", "location_d": "E of Alexander Dr", "traffic_ye": "2012\/13", "collection": "Class", "mon_sun": 7430.0, "mon_fri": 8010.0, "pct_heavy_": 5.3, "pct_heavy1": 7.5, "network_pe": "No", "lg_no": "109", "lg_name": "Swan (C)", "ra_no": 7, "ra_name": "Metropolitan" }, "geometry": { "type": "Point", "coordinates": [ 115.878170974000113, -31.845966019999931 ] } },
{ "type": "Feature", "properties": { "site_no": "6797", "road_name": "Sutherland St", "location_d": "N of Wellington St", "traffic_ye": "2012\/13", "collection": "Volume", "mon_sun": 17620.0, "mon_fri": 20680.0, "pct_heavy_": 0.0, "pct_heavy1": 0.0, "network_pe": "No", "lg_no": "124", "lg_name": "Perth (C)", "ra_no": 7, "ra_name": "Metropolitan" }, "geometry": { "type": "Point", "coordinates": [ 115.846915999000089, -31.946471021999965 ] } },
{ "type": "Feature", "properties": { "site_no": "6798", "road_name": "Wellington St", "location_d": "E of Sutherland St", "traffic_ye": "2013\/14", "collection": "Volume", "mon_sun": 17900.0, "mon_fri": 19220.0, "pct_heavy_": 0.0, "pct_heavy1": 0.0, "network_pe": "No", "lg_no": "124", "lg_name": "Perth (C)", "ra_no": 7, "ra_name": "Metropolitan" }, "geometry": { "type": "Point", "coordinates": [ 115.847345969000102, -31.947712985999942 ] } },
{ "type": "Feature", "properties": { "site_no": "6804", "road_name": "Albany Hwy on to Leach Hwy (Westbound)", "location_d": "WB W of Albany Hwy", "traffic_ye": "2012\/13", "collection": "Class", "mon_sun": 3060.0, "mon_fri": 3200.0, "pct_heavy_": 7.0, "pct_heavy1": 7.0, "network_pe": "No", "lg_no": "114", "lg_name": "Canning (C)", "ra_no": 7, "ra_name": "Metropolitan" }, "geometry": { "type": "Point", "coordinates": [ 115.922715045000018, -32.008787993999931 ] } },
{ "type": "Feature", "properties": { "site_no": "6805", "road_name": "Leach Hwy (Eastbound) off to Albany Hwy", "location_d": "EB W of Albany Hwy", "traffic_ye": "2012\/13", "collection": "Class", "mon_sun": 3670.0, "mon_fri": 3850.0, "pct_heavy_": 6.6, "pct_heavy1": 6.6, "network_pe": "No", "lg_no": "114", "lg_name": "Canning (C)", "ra_no": 7, "ra_name": "Metropolitan" }, "geometry": { "type": "Point", "coordinates": [ 115.92230401499999, -32.008285004999948 ] } },
{ "type": "Feature", "properties": { "site_no": "6806", "road_name": "Albany Hwy on to Leach Hwy (Eastbound)", "location_d": "EB E of Albany Hwy", "traffic_ye": "2012\/13", "collection": "Volume", "mon_sun": 6500.0, "mon_fri": 7510.0, "pct_heavy_": 0.0, "pct_heavy1": 0.0, "network_pe": "No", "lg_no": "114", "lg_name": "Canning (C)", "ra_no": 7, "ra_name": "Metropolitan" }, "geometry": { "type": "Point", "coordinates": [ 115.926148036000086, -32.004974991999973 ] } },
{ "type": "Feature", "properties": { "site_no": "6807", "road_name": "Leach Hwy (Westbound) off to Albany Hwy", "location_d": "WB E of Albany Hwy", "traffic_ye": "2012\/13", "collection": "Class", "mon_sun": 5800.0, "mon_fri": 6320.0, "pct_heavy_": 4.7, "pct_heavy1": 6.7, "network_pe": "No", "lg_no": "114", "lg_name": "Canning (C)", "ra_no": 7, "ra_name": "Metropolitan" }, "geometry": { "type": "Point", "coordinates": [ 115.926437001000068, -32.005239983999957 ] } },
{ "type": "Feature", "properties": { "site_no": "6817", "road_name": "Centenary Av", "location_d": "Centenary Av off to Leach Hwy (Westbound)", "traffic_ye": "2013\/14", "collection": "Volume", "mon_sun": 8730.0, "mon_fri": 10150.0, "pct_heavy_": 0.0, "pct_heavy1": 0.0, "network_pe": "No", "lg_no": "114", "lg_name": "Canning (C)", "ra_no": 7, "ra_name": "Metropolitan" }, "geometry": { "type": "Point", "coordinates": [ 115.902522999000098, -32.023284006999972 ] } },
{ "type": "Feature", "properties": { "site_no": "6820", "road_name": "Bibra Dr", "location_d": "E of Forrest Rd", "traffic_ye": "2011\/12", "collection": "Volume", "mon_sun": 6970.0, "mon_fri": 7460.0, "pct_heavy_": 0.0, "pct_heavy1": 0.0, "network_pe": "No", "lg_no": "103", "lg_name": "Cockburn (C)", "ra_no": 7, "ra_name": "Metropolitan" }, "geometry": { "type": "Point", "coordinates": [ 115.82466798300004, -32.102137956999968 ] } },
{ "type": "Feature", "properties": { "site_no": "6823", "road_name": "Ranford Rd", "location_d": "W of Nicholson Rd", "traffic_ye": "2014\/15", "collection": "Volume", "mon_sun": 36540.0, "mon_fri": 38360.0, "pct_heavy_": 0.0, "pct_heavy1": 0.0, "network_pe": "No", "lg_no": "114", "lg_name": "Canning (C)", "ra_no": 7, "ra_name": "Metropolitan" }, "geometry": { "type": "Point", "coordinates": [ 115.916630035000011, -32.087841967999964 ] } },
{ "type": "Feature", "properties": { "site_no": "6829", "road_name": "South Western Hwy", "location_d": "S of Abernethy Rd", "traffic_ye": "2014\/15", "collection": "Class", "mon_sun": 11010.0, "mon_fri": 11700.0, "pct_heavy_": 15.1, "pct_heavy1": 15.1, "network_pe": "No", "lg_no": "108", "lg_name": "Serpentine - Jarrahdale", "ra_no": 7, "ra_name": "Metropolitan" }, "geometry": { "type": "Point", "coordinates": [ 116.00864396900009, -32.222765004999928 ] } },
{ "type": "Feature", "properties": { "site_no": "6832", "road_name": "Sixty Eight Rd", "location_d": "E of Mandurah Rd", "traffic_ye": "2014\/15", "collection": "Class", "mon_sun": 3010.0, "mon_fri": 3190.0, "pct_heavy_": 6.9, "pct_heavy1": 8.4, "network_pe": "No", "lg_no": "107", "lg_name": "Rockingham (C)", "ra_no": 7, "ra_name": "Metropolitan" }, "geometry": { "type": "Point", "coordinates": [ 115.788067979000061, -32.363629026999945 ] } },
{ "type": "Feature", "properties": { "site_no": "6839", "road_name": "Canning Dam Rd", "location_d": "N of Albany Hwy", "traffic_ye": "2013\/14", "collection": "Volume", "mon_sun": 170.0, "mon_fri": 90.0, "pct_heavy_": 0.0, "pct_heavy1": 0.0, "network_pe": "No", "lg_no": "101", "lg_name": "Armadale (C)", "ra_no": 7, "ra_name": "Metropolitan" }, "geometry": { "type": "Point", "coordinates": [ 116.117728980000038, -32.176313015999938 ] } },
{ "type": "Feature", "properties": { "site_no": "6843", "road_name": "Brand Hwy", "location_d": "N of Muchea South Rd", "traffic_ye": "2014\/15", "collection": "Class", "mon_sun": 3900.0, "mon_fri": 4080.0, "pct_heavy_": 32.9, "pct_heavy1": 32.9, "network_pe": "No", "lg_no": "502", "lg_name": "Chittering", "ra_no": 14, "ra_name": "Mid West-Gascoyne" }, "geometry": { "type": "Point", "coordinates": [ 115.972156971000118, -31.570742981999956 ] } },
{ "type": "Feature", "properties": { "site_no": "6844", "road_name": "Brand Hwy", "location_d": "W of Great Northern Hwy", "traffic_ye": "2014\/15", "collection": "Class", "mon_sun": 3560.0, "mon_fri": 3770.0, "pct_heavy_": 23.4, "pct_heavy1": 26.5, "network_pe": "No", "lg_no": "502", "lg_name": "Chittering", "ra_no": 8, "ra_name": "Wheatbelt" }, "geometry": { "type": "Point", "coordinates": [ 115.994699991000061, -31.57686404399993 ] } },
{ "type": "Feature", "properties": { "site_no": "6845", "road_name": "Great Northern Hwy", "location_d": "N of Muchea East Rd", "traffic_ye": "2014\/15", "collection": "Class", "mon_sun": 4160.0, "mon_fri": 4360.0, "pct_heavy_": 32.5, "pct_heavy1": 32.5, "network_pe": "No", "lg_no": "502", "lg_name": "Chittering", "ra_no": 8, "ra_name": "Wheatbelt" }, "geometry": { "type": "Point", "coordinates": [ 115.992836999000019, -31.566156966999984 ] } },
{ "type": "Feature", "properties": { "site_no": "6846", "road_name": "Chittering Rd", "location_d": "E of Great Northern Hwy", "traffic_ye": "2014\/15", "collection": "Class", "mon_sun": 5600.0, "mon_fri": 5880.0, "pct_heavy_": 11.1, "pct_heavy1": 11.1, "network_pe": "No", "lg_no": "109", "lg_name": "Swan (C)", "ra_no": 7, "ra_name": "Metropolitan" }, "geometry": { "type": "Point", "coordinates": [ 116.033172045000015, -31.664116002999947 ] } },
{ "type": "Feature", "properties": { "site_no": "6847", "road_name": "Great Northern Hwy", "location_d": "S of Bullsbrook Rd", "traffic_ye": "2014\/15", "collection": "Class", "mon_sun": 12690.0, "mon_fri": 13330.0, "pct_heavy_": 21.8, "pct_heavy1": 21.8, "network_pe": "No", "lg_no": "109", "lg_name": "Swan (C)", "ra_no": 7, "ra_name": "Metropolitan" }, "geometry": { "type": "Point", "coordinates": [ 116.032156001000075, -31.673934040999935 ] } },
{ "type": "Feature", "properties": { "site_no": "6848", "road_name": "Seaborne St", "location_d": "N of Great Eastern Hwy", "traffic_ye": "2013\/14", "collection": "Class", "mon_sun": 3210.0, "mon_fri": 3290.0, "pct_heavy_": 5.9, "pct_heavy1": 6.8, "network_pe": "No", "lg_no": "106", "lg_name": "Mundaring", "ra_no": 7, "ra_name": "Metropolitan" }, "geometry": { "type": "Point", "coordinates": [ 116.140274013000067, -31.89800295699996 ] } },
{ "type": "Feature", "properties": { "site_no": "6850", "road_name": "Sawyers Rd", "location_d": "N of Great Eastern Hwy", "traffic_ye": "2013\/14", "collection": "Class", "mon_sun": 2350.0, "mon_fri": 2520.0, "pct_heavy_": 7.2, "pct_heavy1": 7.6, "network_pe": "No", "lg_no": "106", "lg_name": "Mundaring", "ra_no": 7, "ra_name": "Metropolitan" }, "geometry": { "type": "Point", "coordinates": [ 116.204207012000097, -31.902842982999967 ] } },
{ "type": "Feature", "properties": { "site_no": "6852", "road_name": "Great Eastern Hwy", "location_d": "E of Sawyers Rd", "traffic_ye": "2013\/14", "collection": "Class", "mon_sun": 12690.0, "mon_fri": 13260.0, "pct_heavy_": 14.9, "pct_heavy1": 16.4, "network_pe": "No", "lg_no": "106", "lg_name": "Mundaring", "ra_no": 7, "ra_name": "Metropolitan" }, "geometry": { "type": "Point", "coordinates": [ 116.205964043000094, -31.903451017999942 ] } },
{ "type": "Feature", "properties": { "site_no": "6855", "road_name": "Mandurah Rd", "location_d": "S of Gordon Rd", "traffic_ye": "2014\/15", "collection": "Class", "mon_sun": 24460.0, "mon_fri": 25990.0, "pct_heavy_": 8.3, "pct_heavy1": 8.3, "network_pe": "No", "lg_no": "212", "lg_name": "Mandurah (C)", "ra_no": 2, "ra_name": "South West" }, "geometry": { "type": "Point", "coordinates": [ 115.744045016000086, -32.51292198699997 ] } },
{ "type": "Feature", "properties": { "site_no": "6856", "road_name": "Murdoch Dr", "location_d": "E of Mandurah Rd", "traffic_ye": "2009\/10", "collection": "Volume", "mon_sun": 14570.0, "mon_fri": 15810.0, "pct_heavy_": 0.0, "pct_heavy1": 0.0, "network_pe": "No", "lg_no": "212", "lg_name": "Mandurah (C)", "ra_no": 2, "ra_name": "South West" }, "geometry": { "type": "Point", "coordinates": [ 115.747435001000099, -32.528411991999974 ] } },
{ "type": "Feature", "properties": { "site_no": "6859", "road_name": "Wanjeep St", "location_d": "S of Pinjarra Rd", "traffic_ye": "2011\/12", "collection": "Class", "mon_sun": 7530.0, "mon_fri": 7790.0, "pct_heavy_": 3.4, "pct_heavy1": 4.5, "network_pe": "No", "lg_no": "212", "lg_name": "Mandurah (C)", "ra_no": 2, "ra_name": "South West" }, "geometry": { "type": "Point", "coordinates": [ 115.756280001000036, -32.539950002999937 ] } },
{ "type": "Feature", "properties": { "site_no": "6868", "road_name": "Maddington Rd", "location_d": "S of Kelvin Rd", "traffic_ye": "2013\/14", "collection": "Volume", "mon_sun": 6360.0, "mon_fri": 7060.0, "pct_heavy_": 0.0, "pct_heavy1": 0.0, "network_pe": "No", "lg_no": "104", "lg_name": "Gosnells (C)", "ra_no": 7, "ra_name": "Metropolitan" }, "geometry": { "type": "Point", "coordinates": [ 115.994611965000104, -32.043612025999941 ] } },
{ "type": "Feature", "properties": { "site_no": "6888", "road_name": "Leach Hwy", "location_d": "EB At Kwinana Fwy Bridge", "traffic_ye": "2013\/14", "collection": "Volume", "mon_sun": 31320.0, "mon_fri": 33400.0, "pct_heavy_": 0.0, "pct_heavy1": 0.0, "network_pe": "No", "lg_no": "119", "lg_name": "Melville (C)", "ra_no": 7, "ra_name": "Metropolitan" }, "geometry": { "type": "Point", "coordinates": [ 115.853056001000027, -32.046251964999954 ] } },
{ "type": "Feature", "properties": { "site_no": "6894", "road_name": "Lakes Rd", "location_d": "N of Pinjarra Rd", "traffic_ye": "2010\/11", "collection": "Class", "mon_sun": 9240.0, "mon_fri": 9990.0, "pct_heavy_": 4.4, "pct_heavy1": 5.0, "network_pe": "No", "lg_no": "212", "lg_name": "Mandurah (C)", "ra_no": 2, "ra_name": "South West" }, "geometry": { "type": "Point", "coordinates": [ 115.757073969000075, -32.538863044999971 ] } },
{ "type": "Feature", "properties": { "site_no": "6899", "road_name": "South Western Hwy", "location_d": "N of Paterson Rd (Pinjarra)", "traffic_ye": "2009\/10", "collection": "Class", "mon_sun": 6690.0, "mon_fri": 7220.0, "pct_heavy_": 7.3, "pct_heavy1": 8.6, "network_pe": "No", "lg_no": "215", "lg_name": "Murray", "ra_no": 2, "ra_name": "South West" }, "geometry": { "type": "Point", "coordinates": [ 115.878910040000036, -32.627040002999934 ] } },
{ "type": "Feature", "properties": { "site_no": "6903", "road_name": "Ocean Reef Rd", "location_d": "W of Eddystone Av", "traffic_ye": "2014\/15", "collection": "Volume", "mon_sun": 18240.0, "mon_fri": 19170.0, "pct_heavy_": 0.0, "pct_heavy1": 0.0, "network_pe": "No", "lg_no": "131", "lg_name": "Joondalup (C)", "ra_no": 7, "ra_name": "Metropolitan" }, "geometry": { "type": "Point", "coordinates": [ 115.766776988000046, -31.769252039999966 ] } },
{ "type": "Feature", "properties": { "site_no": "6911", "road_name": "Mitchell Fwy (Northbound) off to Southport St", "location_d": "NB E of Southport St", "traffic_ye": "2013\/14", "collection": "Class", "mon_sun": 8060.0, "mon_fri": 8400.0, "pct_heavy_": 4.3, "pct_heavy1": 5.0, "network_pe": "No", "lg_no": "128", "lg_name": "Cambridge (T)", "ra_no": 7, "ra_name": "Metropolitan" }, "geometry": { "type": "Point", "coordinates": [ 115.839624986000103, -31.93889397199996 ] } },
{ "type": "Feature", "properties": { "site_no": "6912", "road_name": "Vincent St on to Mitchell Fwy (Northbound)", "location_d": "NB N of Vincent St", "traffic_ye": "2013\/14", "collection": "Class", "mon_sun": 14530.0, "mon_fri": 14480.0, "pct_heavy_": 5.5, "pct_heavy1": 6.5, "network_pe": "No", "lg_no": "124", "lg_name": "Perth (C)", "ra_no": 7, "ra_name": "Metropolitan" }, "geometry": { "type": "Point", "coordinates": [ 115.836073956000064, -31.933414983999967 ] } },
{ "type": "Feature", "properties": { "site_no": "6915", "road_name": "Cedric St on to Mitchell Fwy (Northbound)", "location_d": "S of Mitchell Fwy", "traffic_ye": "2014\/15", "collection": "Class", "mon_sun": 7040.0, "mon_fri": 7450.0, "pct_heavy_": 4.8, "pct_heavy1": 5.3, "network_pe": "No", "lg_no": "125", "lg_name": "Stirling (C)", "ra_no": 7, "ra_name": "Metropolitan" }, "geometry": { "type": "Point", "coordinates": [ 115.800529983000047, -31.884459027999981 ] } },
{ "type": "Feature", "properties": { "site_no": "6922", "road_name": "Kelvin Rd", "location_d": "W of Maddington Rd", "traffic_ye": "2013\/14", "collection": "Volume", "mon_sun": 15710.0, "mon_fri": 19060.0, "pct_heavy_": 0.0, "pct_heavy1": 0.0, "network_pe": "No", "lg_no": "104", "lg_name": "Gosnells (C)", "ra_no": 7, "ra_name": "Metropolitan" }, "geometry": { "type": "Point", "coordinates": [ 115.990844989000024, -32.043522993999943 ] } },
{ "type": "Feature", "properties": { "site_no": "6926", "road_name": "Mundaring Weir Rd", "location_d": "W of Hinkler Rd", "traffic_ye": "2014\/15", "collection": "Class", "mon_sun": 1690.0, "mon_fri": 1500.0, "pct_heavy_": 6.5, "pct_heavy1": 7.3, "network_pe": "No", "lg_no": "102", "lg_name": "Kalamunda", "ra_no": 7, "ra_name": "Metropolitan" }, "geometry": { "type": "Point", "coordinates": [ 116.07376503600004, -31.979903025999931 ] } },
{ "type": "Feature", "properties": { "site_no": "6927", "road_name": "Roe Hwy", "location_d": "S of Tonkin Hwy", "traffic_ye": "2013\/14", "collection": "Class", "mon_sun": 52360.0, "mon_fri": 59050.0, "pct_heavy_": 11.2, "pct_heavy1": 15.1, "network_pe": "No", "lg_no": "102", "lg_name": "Kalamunda", "ra_no": 7, "ra_name": "Metropolitan" }, "geometry": { "type": "Point", "coordinates": [ 115.977359987000114, -31.997870003999935 ] } },
{ "type": "Feature", "properties": { "site_no": "6935", "road_name": "Monument St", "location_d": "N of Victoria St", "traffic_ye": "2013\/14", "collection": "Class", "mon_sun": 5160.0, "mon_fri": 5750.0, "pct_heavy_": 1.6, "pct_heavy1": 2.0, "network_pe": "No", "lg_no": "121", "lg_name": "Mosman Park (T)", "ra_no": 7, "ra_name": "Metropolitan" }, "geometry": { "type": "Point", "coordinates": [ 115.76094196400004, -32.012088032999941 ] } },
{ "type": "Feature", "properties": { "site_no": "6936", "road_name": "Monument St", "location_d": "S of Victoria St", "traffic_ye": "2013\/14", "collection": "Class", "mon_sun": 3180.0, "mon_fri": 3570.0, "pct_heavy_": 2.2, "pct_heavy1": 2.7, "network_pe": "No", "lg_no": "121", "lg_name": "Mosman Park (T)", "ra_no": 7, "ra_name": "Metropolitan" }, "geometry": { "type": "Point", "coordinates": [ 115.76094095700013, -32.012306997999929 ] } },
{ "type": "Feature", "properties": { "site_no": "6941", "road_name": "Mitchell Fwy", "location_d": "NB N of Mitchell Fwy (Northbound) off to Karrinyup Rd", "traffic_ye": "2014\/15", "collection": "Volume", "mon_sun": 7550.0, "mon_fri": 7690.0, "pct_heavy_": 0.0, "pct_heavy1": 0.0, "network_pe": "No", "lg_no": "125", "lg_name": "Stirling (C)", "ra_no": 7, "ra_name": "Metropolitan" }, "geometry": { "type": "Point", "coordinates": [ 115.801262003000019, -31.887422977999957 ] } },
{ "type": "Feature", "properties": { "site_no": "6942", "road_name": "Mitchell Fwy", "location_d": "SB N of Karrinyup Rd on to Mitchell Fwy (Southbound)", "traffic_ye": "2013\/14", "collection": "Volume", "mon_sun": 49430.0, "mon_fri": 52340.0, "pct_heavy_": 0.0, "pct_heavy1": 0.0, "network_pe": "No", "lg_no": "125", "lg_name": "Stirling (C)", "ra_no": 7, "ra_name": "Metropolitan" }, "geometry": { "type": "Point", "coordinates": [ 115.801918991000093, -31.889280021999983 ] } },
{ "type": "Feature", "properties": { "site_no": "6944", "road_name": "Ocean Reef Rd", "location_d": "E of Wanneroo Rd", "traffic_ye": "2014\/15", "collection": "Class", "mon_sun": 28630.0, "mon_fri": 30740.0, "pct_heavy_": 9.8, "pct_heavy1": 11.3, "network_pe": "No", "lg_no": "110", "lg_name": "Wanneroo (C)", "ra_no": 7, "ra_name": "Metropolitan" }, "geometry": { "type": "Point", "coordinates": [ 115.811504979, -31.784041043999931 ] } },
{ "type": "Feature", "properties": { "site_no": "6945", "road_name": "Malaga Dr", "location_d": "S of Reid Hwy", "traffic_ye": "2013\/14", "collection": "Class", "mon_sun": 14440.0, "mon_fri": 15680.0, "pct_heavy_": 6.3, "pct_heavy1": 7.3, "network_pe": "No", "lg_no": "112", "lg_name": "Bayswater (C)", "ra_no": 7, "ra_name": "Metropolitan" }, "geometry": { "type": "Point", "coordinates": [ 115.896736013, -31.869423972999979 ] } },
{ "type": "Feature", "properties": { "site_no": "6949", "road_name": "Whitfords Av", "location_d": "E of Kingsley Dr", "traffic_ye": "2014\/15", "collection": "Volume", "mon_sun": 33280.0, "mon_fri": 35560.0, "pct_heavy_": 0.0, "pct_heavy1": 0.0, "network_pe": "No", "lg_no": "131", "lg_name": "Joondalup (C)", "ra_no": 7, "ra_name": "Metropolitan" }, "geometry": { "type": "Point", "coordinates": [ 115.790787983000101, -31.799616969999931 ] } },
{ "type": "Feature", "properties": { "site_no": "6952", "road_name": "Moore Dr", "location_d": "E of Candlewood Bvd", "traffic_ye": "2014\/15", "collection": "Class", "mon_sun": 12120.0, "mon_fri": 13060.0, "pct_heavy_": 4.6, "pct_heavy1": 5.1, "network_pe": "No", "lg_no": "131", "lg_name": "Joondalup (C)", "ra_no": 7, "ra_name": "Metropolitan" }, "geometry": { "type": "Point", "coordinates": [ 115.763109018000037, -31.73277199599994 ] } },
{ "type": "Feature", "properties": { "site_no": "6953", "road_name": "Hodges Dr", "location_d": "W of Marmion Av", "traffic_ye": "2014\/15", "collection": "Volume", "mon_sun": 7160.0, "mon_fri": 7760.0, "pct_heavy_": 0.0, "pct_heavy1": 0.0, "network_pe": "No", "lg_no": "131", "lg_name": "Joondalup (C)", "ra_no": 7, "ra_name": "Metropolitan" }, "geometry": { "type": "Point", "coordinates": [ 115.740996975000016, -31.75597703699998 ] } },
{ "type": "Feature", "properties": { "site_no": "6964", "road_name": "Lewis Jones Crss", "location_d": "S of Toodyay Rd", "traffic_ye": "2013\/14", "collection": "Class", "mon_sun": 7120.0, "mon_fri": 7340.0, "pct_heavy_": 5.2, "pct_heavy1": 5.7, "network_pe": "No", "lg_no": "109", "lg_name": "Swan (C)", "ra_no": 7, "ra_name": "Metropolitan" }, "geometry": { "type": "Point", "coordinates": [ 116.033247992000042, -31.865311025999969 ] } },
{ "type": "Feature", "properties": { "site_no": "6967", "road_name": "Centenary Av", "location_d": "Leach Hwy (Westbound) off to Centenary Av (Westbound)", "traffic_ye": "2013\/14", "collection": "Volume", "mon_sun": 390.0, "mon_fri": 520.0, "pct_heavy_": 0.0, "pct_heavy1": 0.0, "network_pe": "No", "lg_no": "114", "lg_name": "Canning (C)", "ra_no": 7, "ra_name": "Metropolitan" }, "geometry": { "type": "Point", "coordinates": [ 115.902571038000019, -32.023457038999936 ] } },
{ "type": "Feature", "properties": { "site_no": "6982", "road_name": "Gilmore Av", "location_d": "S of Wellard Rd", "traffic_ye": "2011\/12", "collection": "Volume", "mon_sun": 15150.0, "mon_fri": 16340.0, "pct_heavy_": 0.0, "pct_heavy1": 0.0, "network_pe": "No", "lg_no": "105", "lg_name": "Kwinana (C)", "ra_no": 7, "ra_name": "Metropolitan" }, "geometry": { "type": "Point", "coordinates": [ 115.80979598600004, -32.255656045999956 ] } },
{ "type": "Feature", "properties": { "site_no": "6985", "road_name": "Pinjarra Rd", "location_d": "E of Anstruther Rd", "traffic_ye": "2010\/11", "collection": "Class", "mon_sun": 13990.0, "mon_fri": 14650.0, "pct_heavy_": 5.1, "pct_heavy1": 5.6, "network_pe": "No", "lg_no": "212", "lg_name": "Mandurah (C)", "ra_no": 2, "ra_name": "South West" }, "geometry": { "type": "Point", "coordinates": [ 115.732994987000083, -32.535416967999936 ] } },
{ "type": "Feature", "properties": { "site_no": "6989", "road_name": "Stakehill Rd", "location_d": "W of Baldivis Rd", "traffic_ye": "2014\/15", "collection": "Class", "mon_sun": 4470.0, "mon_fri": 4690.0, "pct_heavy_": 10.5, "pct_heavy1": 10.5, "network_pe": "No", "lg_no": "107", "lg_name": "Rockingham (C)", "ra_no": 7, "ra_name": "Metropolitan" }, "geometry": { "type": "Point", "coordinates": [ 115.816870961000049, -32.386605036999981 ] } },
{ "type": "Feature", "properties": { "site_no": "6995", "road_name": "Great Eastern Hwy", "location_d": "E of Berry Brow Rd", "traffic_ye": "2013\/14", "collection": "Class", "mon_sun": 6220.0, "mon_fri": 6360.0, "pct_heavy_": 17.4, "pct_heavy1": 20.0, "network_pe": "No", "lg_no": "421", "lg_name": "Northam", "ra_no": 8, "ra_name": "Wheatbelt" }, "geometry": { "type": "Point", "coordinates": [ 116.456830023000052, -31.749460043999932 ] } },
{ "type": "Feature", "properties": { "site_no": "7010", "road_name": "Pinjarra Rd", "location_d": "E of Dower St", "traffic_ye": "2012\/13", "collection": "Volume", "mon_sun": 21310.0, "mon_fri": 22400.0, "pct_heavy_": 0.0, "pct_heavy1": 0.0, "network_pe": "No", "lg_no": "212", "lg_name": "Mandurah (C)", "ra_no": 2, "ra_name": "South West" }, "geometry": { "type": "Point", "coordinates": [ 115.739128036, -32.536434017999966 ] } },
{ "type": "Feature", "properties": { "site_no": "7011", "road_name": "Beeliar Dr", "location_d": "W of North Lake Rd", "traffic_ye": "2014\/15", "collection": "Volume", "mon_sun": 32020.0, "mon_fri": 34620.0, "pct_heavy_": 0.0, "pct_heavy1": 0.0, "network_pe": "No", "lg_no": "103", "lg_name": "Cockburn (C)", "ra_no": 7, "ra_name": "Metropolitan" }, "geometry": { "type": "Point", "coordinates": [ 115.851292016000116, -32.129107044999955 ] } },
{ "type": "Feature", "properties": { "site_no": "7012", "road_name": "Armadale Rd", "location_d": "W of Liddelow Rd", "traffic_ye": "2014\/15", "collection": "Class", "mon_sun": 26840.0, "mon_fri": 28120.0, "pct_heavy_": 10.3, "pct_heavy1": 10.3, "network_pe": "No", "lg_no": "103", "lg_name": "Cockburn (C)", "ra_no": 7, "ra_name": "Metropolitan" }, "geometry": { "type": "Point", "coordinates": [ 115.885158016000105, -32.133620955999959 ] } },
{ "type": "Feature", "properties": { "site_no": "7016", "road_name": "Old Coast Rd", "location_d": "At Port Bouvard Bridge", "traffic_ye": "2011\/12", "collection": "Class", "mon_sun": 12730.0, "mon_fri": 13300.0, "pct_heavy_": 5.7, "pct_heavy1": 6.6, "network_pe": "No", "lg_no": "212", "lg_name": "Mandurah (C)", "ra_no": 2, "ra_name": "South West" }, "geometry": { "type": "Point", "coordinates": [ 115.640339987000061, -32.605930003999951 ] } },
{ "type": "Feature", "properties": { "site_no": "7017", "road_name": "Berrigan Dr", "location_d": "S of Karel Av", "traffic_ye": "2014\/15", "collection": "Class", "mon_sun": 11630.0, "mon_fri": 13900.0, "pct_heavy_": 8.8, "pct_heavy1": 10.3, "network_pe": "No", "lg_no": "103", "lg_name": "Cockburn (C)", "ra_no": 7, "ra_name": "Metropolitan" }, "geometry": { "type": "Point", "coordinates": [ 115.863221017000114, -32.091907973999973 ] } },
{ "type": "Feature", "properties": { "site_no": "7018", "road_name": "Ranford Rd", "location_d": "E of Nicholson Rd", "traffic_ye": "2014\/15", "collection": "Volume", "mon_sun": 27750.0, "mon_fri": 28540.0, "pct_heavy_": 0.0, "pct_heavy1": 0.0, "network_pe": "No", "lg_no": "104", "lg_name": "Gosnells (C)", "ra_no": 7, "ra_name": "Metropolitan" }, "geometry": { "type": "Point", "coordinates": [ 115.923540031000016, -32.091998012999966 ] } },
{ "type": "Feature", "properties": { "site_no": "7023", "road_name": "Nungarin Wyalkatchem Rd", "location_d": "E of Tammin Wyalkatchem Rd", "traffic_ye": "2014\/15", "collection": "Class", "mon_sun": 220.0, "mon_fri": 230.0, "pct_heavy_": 22.7, "pct_heavy1": 25.6, "network_pe": "Yes", "lg_no": "431", "lg_name": "Wyalkatchem", "ra_no": 8, "ra_name": "Wheatbelt" }, "geometry": { "type": "Point", "coordinates": [ 117.397162964000017, -31.194047028999933 ] } },
{ "type": "Feature", "properties": { "site_no": "7027", "road_name": "Roe Hwy", "location_d": "N of Chisholm Cr", "traffic_ye": "2009\/10", "collection": "Class", "mon_sun": 49520.0, "mon_fri": 52050.0, "pct_heavy_": 14.8, "pct_heavy1": 14.8, "network_pe": "No", "lg_no": "102", "lg_name": "Kalamunda", "ra_no": 7, "ra_name": "Metropolitan" }, "geometry": { "type": "Point", "coordinates": [ 115.97941998400006, -31.995180012999981 ] } },
{ "type": "Feature", "properties": { "site_no": "7029", "road_name": "Kwinana Fwy", "location_d": "NB N of Thomas Rd", "traffic_ye": "2013\/14", "collection": "Volume", "mon_sun": 41270.0, "mon_fri": 43970.0, "pct_heavy_": 0.0, "pct_heavy1": 0.0, "network_pe": "No", "lg_no": "105", "lg_name": "Kwinana (C)", "ra_no": 7, "ra_name": "Metropolitan" }, "geometry": { "type": "Point", "coordinates": [ 115.848213962000031, -32.220598041999949 ] } },
{ "type": "Feature", "properties": { "site_no": "7030", "road_name": "Kwinana Fwy", "location_d": "SB N of Thomas Rd", "traffic_ye": "2013\/14", "collection": "Volume", "mon_sun": 41400.0, "mon_fri": 44120.0, "pct_heavy_": 0.0, "pct_heavy1": 0.0, "network_pe": "No", "lg_no": "105", "lg_name": "Kwinana (C)", "ra_no": 7, "ra_name": "Metropolitan" }, "geometry": { "type": "Point", "coordinates": [ 115.848567985000045, -32.220338998999978 ] } },
{ "type": "Feature", "properties": { "site_no": "7031", "road_name": "Albany Hwy", "location_d": "E of Admiral Rd", "traffic_ye": "2011\/12", "collection": "Volume", "mon_sun": 6650.0, "mon_fri": 6170.0, "pct_heavy_": 0.0, "pct_heavy1": 0.0, "network_pe": "No", "lg_no": "101", "lg_name": "Armadale (C)", "ra_no": 7, "ra_name": "Metropolitan" }, "geometry": { "type": "Point", "coordinates": [ 116.055435982000063, -32.176800997999976 ] } },
{ "type": "Feature", "properties": { "site_no": "7034", "road_name": "Baldivis Rd", "location_d": "W of Wellard Rd", "traffic_ye": "2012\/13", "collection": "Class", "mon_sun": 4090.0, "mon_fri": 4440.0, "pct_heavy_": 8.5, "pct_heavy1": 10.0, "network_pe": "No", "lg_no": "107", "lg_name": "Rockingham (C)", "ra_no": 7, "ra_name": "Metropolitan" }, "geometry": { "type": "Point", "coordinates": [ 115.83529096900007, -32.275673961999928 ] } },
{ "type": "Feature", "properties": { "site_no": "7036", "road_name": "Dampier Dr", "location_d": "W of Mandurah Rd", "traffic_ye": "2014\/15", "collection": "Volume", "mon_sun": 6930.0, "mon_fri": 7610.0, "pct_heavy_": 0.0, "pct_heavy1": 0.0, "network_pe": "No", "lg_no": "107", "lg_name": "Rockingham (C)", "ra_no": 7, "ra_name": "Metropolitan" }, "geometry": { "type": "Point", "coordinates": [ 115.773740971000038, -32.42556699499994 ] } },
{ "type": "Feature", "properties": { "site_no": "7048", "road_name": "Collier Rd", "location_d": "S of Walter Rd West", "traffic_ye": "2013\/14", "collection": "Class", "mon_sun": 12750.0, "mon_fri": 13670.0, "pct_heavy_": 5.8, "pct_heavy1": 5.8, "network_pe": "No", "lg_no": "112", "lg_name": "Bayswater (C)", "ra_no": 7, "ra_name": "Metropolitan" }, "geometry": { "type": "Point", "coordinates": [ 115.902297994000037, -31.895897026999929 ] } },
{ "type": "Feature", "properties": { "site_no": "7057", "road_name": "Stephenson Av", "location_d": "S of Scarborough Beach Rd", "traffic_ye": "2013\/14", "collection": "Class", "mon_sun": 10930.0, "mon_fri": 11720.0, "pct_heavy_": 5.2, "pct_heavy1": 5.2, "network_pe": "No", "lg_no": "125", "lg_name": "Stirling (C)", "ra_no": 7, "ra_name": "Metropolitan" }, "geometry": { "type": "Point", "coordinates": [ 115.800717014000043, -31.907561036999937 ] } },
{ "type": "Feature", "properties": { "site_no": "7058", "road_name": "Jon Sanders Dr", "location_d": "W of Selby St", "traffic_ye": "2012\/13", "collection": "Class", "mon_sun": 18900.0, "mon_fri": 22100.0, "pct_heavy_": 2.9, "pct_heavy1": 3.7, "network_pe": "No", "lg_no": "125", "lg_name": "Stirling (C)", "ra_no": 7, "ra_name": "Metropolitan" }, "geometry": { "type": "Point", "coordinates": [ 115.802592999, -31.908683955999944 ] } },
{ "type": "Feature", "properties": { "site_no": "7060", "road_name": "Kwinana Fwy", "location_d": "NB S of Armadale Rd", "traffic_ye": "2014\/15", "collection": "Volume", "mon_sun": 47230.0, "mon_fri": 50090.0, "pct_heavy_": 0.0, "pct_heavy1": 0.0, "network_pe": "No", "lg_no": "103", "lg_name": "Cockburn (C)", "ra_no": 7, "ra_name": "Metropolitan" }, "geometry": { "type": "Point", "coordinates": [ 115.859677033000025, -32.143156983999972 ] } },
{ "type": "Feature", "properties": { "site_no": "7061", "road_name": "Kwinana Fwy", "location_d": "SB S of Armadale Rd", "traffic_ye": "2014\/15", "collection": "Volume", "mon_sun": 49140.0, "mon_fri": 52890.0, "pct_heavy_": 0.0, "pct_heavy1": 0.0, "network_pe": "No", "lg_no": "103", "lg_name": "Cockburn (C)", "ra_no": 7, "ra_name": "Metropolitan" }, "geometry": { "type": "Point", "coordinates": [ 115.860113957000053, -32.143446039999958 ] } },
{ "type": "Feature", "properties": { "site_no": "7063", "road_name": "Port Kennedy Dr", "location_d": "W of Ennis Av", "traffic_ye": "2014\/15", "collection": "Class", "mon_sun": 9460.0, "mon_fri": 9990.0, "pct_heavy_": 7.9, "pct_heavy1": 10.0, "network_pe": "No", "lg_no": "107", "lg_name": "Rockingham (C)", "ra_no": 7, "ra_name": "Metropolitan" }, "geometry": { "type": "Point", "coordinates": [ 115.764551006000033, -32.370792027999983 ] } },
{ "type": "Feature", "properties": { "site_no": "7064", "road_name": "Great Northern Hwy", "location_d": "S of Apple St", "traffic_ye": "2012\/13", "collection": "Class", "mon_sun": 13450.0, "mon_fri": 13910.0, "pct_heavy_": 23.5, "pct_heavy1": 23.5, "network_pe": "No", "lg_no": "109", "lg_name": "Swan (C)", "ra_no": 7, "ra_name": "Metropolitan" }, "geometry": { "type": "Point", "coordinates": [ 116.032402966000063, -31.76588996299995 ] } },
{ "type": "Feature", "properties": { "site_no": "7065", "road_name": "Great Eastern Hwy", "location_d": "E of Linley Valley Rd", "traffic_ye": "2012\/13", "collection": "Class", "mon_sun": 6180.0, "mon_fri": 6500.0, "pct_heavy_": 16.2, "pct_heavy1": 20.2, "network_pe": "No", "lg_no": "421", "lg_name": "Northam", "ra_no": 8, "ra_name": "Wheatbelt" }, "geometry": { "type": "Point", "coordinates": [ 116.355851038000083, -31.808903012999963 ] } },
{ "type": "Feature", "properties": { "site_no": "7074", "road_name": "Reid Hwy", "location_d": "E of Altone Rd", "traffic_ye": "2013\/14", "collection": "Class", "mon_sun": 25450.0, "mon_fri": 26020.0, "pct_heavy_": 6.8, "pct_heavy1": 8.8, "network_pe": "No", "lg_no": "109", "lg_name": "Swan (C)", "ra_no": 7, "ra_name": "Metropolitan" }, "geometry": { "type": "Point", "coordinates": [ 115.950189044000012, -31.860794003999953 ] } },
{ "type": "Feature", "properties": { "site_no": "7075", "road_name": "Reid Hwy", "location_d": "W of West Swan Rd", "traffic_ye": "2014\/15", "collection": "Class", "mon_sun": 25700.0, "mon_fri": 26930.0, "pct_heavy_": 9.5, "pct_heavy1": 11.0, "network_pe": "No", "lg_no": "109", "lg_name": "Swan (C)", "ra_no": 7, "ra_name": "Metropolitan" }, "geometry": { "type": "Point", "coordinates": [ 115.981434961000105, -31.86339798299997 ] } },
{ "type": "Feature", "properties": { "site_no": "7076", "road_name": "Altone Rd", "location_d": "S of Reid Hwy", "traffic_ye": "2013\/14", "collection": "Class", "mon_sun": 11750.0, "mon_fri": 12290.0, "pct_heavy_": 5.1, "pct_heavy1": 5.5, "network_pe": "No", "lg_no": "109", "lg_name": "Swan (C)", "ra_no": 7, "ra_name": "Metropolitan" }, "geometry": { "type": "Point", "coordinates": [ 115.94511495499999, -31.863480975999948 ] } },
{ "type": "Feature", "properties": { "site_no": "7077", "road_name": "Lord St", "location_d": "N of Reid Hwy", "traffic_ye": "2013\/14", "collection": "Class", "mon_sun": 13280.0, "mon_fri": 13990.0, "pct_heavy_": 10.2, "pct_heavy1": 11.8, "network_pe": "No", "lg_no": "109", "lg_name": "Swan (C)", "ra_no": 7, "ra_name": "Metropolitan" }, "geometry": { "type": "Point", "coordinates": [ 115.965246974000024, -31.859668979999981 ] } },
{ "type": "Feature", "properties": { "site_no": "7081", "road_name": "Neaves Rd", "location_d": "E of Old Yanchep Rd", "traffic_ye": "2014\/15", "collection": "Class", "mon_sun": 6380.0, "mon_fri": 6510.0, "pct_heavy_": 10.6, "pct_heavy1": 13.9, "network_pe": "No", "lg_no": "110", "lg_name": "Wanneroo (C)", "ra_no": 7, "ra_name": "Metropolitan" }, "geometry": { "type": "Point", "coordinates": [ 115.822944991000085, -31.696069965999978 ] } },
{ "type": "Feature", "properties": { "site_no": "7082", "road_name": "Malaga Dr", "location_d": "S of Marshall Rd", "traffic_ye": "2013\/14", "collection": "Class", "mon_sun": 17220.0, "mon_fri": 19370.0, "pct_heavy_": 8.1, "pct_heavy1": 9.5, "network_pe": "No", "lg_no": "109", "lg_name": "Swan (C)", "ra_no": 7, "ra_name": "Metropolitan" }, "geometry": { "type": "Point", "coordinates": [ 115.89344201400003, -31.85747603099998 ] } },
{ "type": "Feature", "properties": { "site_no": "7084", "road_name": "Pinaster Pde", "location_d": "N of Gnangara Rd", "traffic_ye": "2014\/15", "collection": "Class", "mon_sun": 15420.0, "mon_fri": 16140.0, "pct_heavy_": 6.2, "pct_heavy1": 6.9, "network_pe": "No", "lg_no": "109", "lg_name": "Swan (C)", "ra_no": 7, "ra_name": "Metropolitan" }, "geometry": { "type": "Point", "coordinates": [ 115.962477010000029, -31.794763035999953 ] } },
{ "type": "Feature", "properties": { "site_no": "7086", "road_name": "Joondalup Dr", "location_d": "S of Hodges Dr", "traffic_ye": "2014\/15", "collection": "Class", "mon_sun": 28410.0, "mon_fri": 29680.0, "pct_heavy_": 4.4, "pct_heavy1": 5.1, "network_pe": "No", "lg_no": "131", "lg_name": "Joondalup (C)", "ra_no": 7, "ra_name": "Metropolitan" }, "geometry": { "type": "Point", "coordinates": [ 115.770421991000035, -31.754750993999949 ] } },
{ "type": "Feature", "properties": { "site_no": "7089", "road_name": "Northam Pithara Rd", "location_d": "S of Craig Rd", "traffic_ye": "2014\/15", "collection": "Class", "mon_sun": 340.0, "mon_fri": 380.0, "pct_heavy_": 21.9, "pct_heavy1": 24.3, "network_pe": "Yes", "lg_no": "518", "lg_name": "Wongan - Ballidu", "ra_no": 8, "ra_name": "Wheatbelt" }, "geometry": { "type": "Point", "coordinates": [ 116.721747039000093, -30.862393010999938 ] } },
{ "type": "Feature", "properties": { "site_no": "7092", "road_name": "Kenwick Link", "location_d": "N of Royal St", "traffic_ye": "2013\/14", "collection": "Volume", "mon_sun": 33310.0, "mon_fri": 35490.0, "pct_heavy_": 0.0, "pct_heavy1": 0.0, "network_pe": "No", "lg_no": "104", "lg_name": "Gosnells (C)", "ra_no": 7, "ra_name": "Metropolitan" }, "geometry": { "type": "Point", "coordinates": [ 115.965707964000103, -32.040933014999951 ] } },
{ "type": "Feature", "properties": { "site_no": "7093", "road_name": "Kenwick Link", "location_d": "N of Osmond St", "traffic_ye": "2013\/14", "collection": "Volume", "mon_sun": 24230.0, "mon_fri": 25840.0, "pct_heavy_": 0.0, "pct_heavy1": 0.0, "network_pe": "No", "lg_no": "104", "lg_name": "Gosnells (C)", "ra_no": 7, "ra_name": "Metropolitan" }, "geometry": { "type": "Point", "coordinates": [ 115.97159496200004, -32.043825043999959 ] } },
{ "type": "Feature", "properties": { "site_no": "7096", "road_name": "Orrong Rd", "location_d": "W of McDowell St", "traffic_ye": "2013\/14", "collection": "Class", "mon_sun": 29600.0, "mon_fri": 35520.0, "pct_heavy_": 10.9, "pct_heavy1": 15.0, "network_pe": "No", "lg_no": "114", "lg_name": "Canning (C)", "ra_no": 7, "ra_name": "Metropolitan" }, "geometry": { "type": "Point", "coordinates": [ 115.961724036000064, -31.997399040999941 ] } },
{ "type": "Feature", "properties": { "site_no": "7097", "road_name": "Roe Hwy", "location_d": "At Bridge Over Tonkin Hwy", "traffic_ye": "2012\/13", "collection": "Class", "mon_sun": 47140.0, "mon_fri": 49260.0, "pct_heavy_": 15.9, "pct_heavy1": 15.9, "network_pe": "No", "lg_no": "102", "lg_name": "Kalamunda", "ra_no": 7, "ra_name": "Metropolitan" }, "geometry": { "type": "Point", "coordinates": [ 115.985282002000062, -31.987229998999965 ] } },
{ "type": "Feature", "properties": { "site_no": "7098", "road_name": "Shepperton Rd on to Canning Hwy (Westbound)", "location_d": "W of Shepperton Rd", "traffic_ye": "2013\/14", "collection": "Volume", "mon_sun": 1560.0, "mon_fri": 1660.0, "pct_heavy_": 0.0, "pct_heavy1": 0.0, "network_pe": "No", "lg_no": "129", "lg_name": "Victoria Park (T)", "ra_no": 7, "ra_name": "Metropolitan" }, "geometry": { "type": "Point", "coordinates": [ 115.88760900200009, -31.969126955999968 ] } },
{ "type": "Feature", "properties": { "site_no": "7101", "road_name": "Albany Hwy", "location_d": "S of Burslem Dr", "traffic_ye": "2013\/14", "collection": "Volume", "mon_sun": 27470.0, "mon_fri": 30830.0, "pct_heavy_": 0.0, "pct_heavy1": 0.0, "network_pe": "No", "lg_no": "104", "lg_name": "Gosnells (C)", "ra_no": 7, "ra_name": "Metropolitan" }, "geometry": { "type": "Point", "coordinates": [ 115.978235026000092, -32.048817969999959 ] } },
{ "type": "Feature", "properties": { "site_no": "7106", "road_name": "Mandurah Rd", "location_d": "S of Crystaluna Dr", "traffic_ye": "2011\/12", "collection": "Class", "mon_sun": 25570.0, "mon_fri": 27060.0, "pct_heavy_": 5.3, "pct_heavy1": 5.8, "network_pe": "No", "lg_no": "107", "lg_name": "Rockingham (C)", "ra_no": 7, "ra_name": "Metropolitan" }, "geometry": { "type": "Point", "coordinates": [ 115.766603957000029, -32.440124040999933 ] } },
{ "type": "Feature", "properties": { "site_no": "7108", "road_name": "Wanneroo Rd", "location_d": "N of Nowergup Rd", "traffic_ye": "2010\/11", "collection": "Volume", "mon_sun": 8910.0, "mon_fri": 10620.0, "pct_heavy_": 0.0, "pct_heavy1": 0.0, "network_pe": "No", "lg_no": "110", "lg_name": "Wanneroo (C)", "ra_no": 7, "ra_name": "Metropolitan" }, "geometry": { "type": "Point", "coordinates": [ 115.73091696499999, -31.644609036999956 ] } },
{ "type": "Feature", "properties": { "site_no": "7109", "road_name": "Wanneroo Rd", "location_d": "N of Flynn Dr", "traffic_ye": "2014\/15", "collection": "Class", "mon_sun": 22530.0, "mon_fri": 24620.0, "pct_heavy_": 8.9, "pct_heavy1": 11.4, "network_pe": "No", "lg_no": "110", "lg_name": "Wanneroo (C)", "ra_no": 7, "ra_name": "Metropolitan" }, "geometry": { "type": "Point", "coordinates": [ 115.758092026000099, -31.68966698599996 ] } },
{ "type": "Feature", "properties": { "site_no": "7115", "road_name": "Anketell Rd", "location_d": "W of Thomas Rd", "traffic_ye": "2013\/14", "collection": "Class", "mon_sun": 1740.0, "mon_fri": 2150.0, "pct_heavy_": 23.5, "pct_heavy1": 27.8, "network_pe": "No", "lg_no": "108", "lg_name": "Serpentine - Jarrahdale", "ra_no": 7, "ra_name": "Metropolitan" }, "geometry": { "type": "Point", "coordinates": [ 115.908542035000096, -32.208649001999959 ] } },
{ "type": "Feature", "properties": { "site_no": "7116", "road_name": "Anketell Rd", "location_d": "E of Rockingham Rd", "traffic_ye": "2013\/14", "collection": "Class", "mon_sun": 7930.0, "mon_fri": 8450.0, "pct_heavy_": 18.5, "pct_heavy1": 18.5, "network_pe": "No", "lg_no": "105", "lg_name": "Kwinana (C)", "ra_no": 7, "ra_name": "Metropolitan" }, "geometry": { "type": "Point", "coordinates": [ 115.800887025000065, -32.210056035999969 ] } },
{ "type": "Feature", "properties": { "site_no": "7119", "road_name": "Kenwick Link", "location_d": "N of Roe Hwy", "traffic_ye": "2013\/14", "collection": "Class", "mon_sun": 20150.0, "mon_fri": 21890.0, "pct_heavy_": 5.3, "pct_heavy1": 6.0, "network_pe": "No", "lg_no": "104", "lg_name": "Gosnells (C)", "ra_no": 7, "ra_name": "Metropolitan" }, "geometry": { "type": "Point", "coordinates": [ 115.958454010000068, -32.035818022999933 ] } },
{ "type": "Feature", "properties": { "site_no": "7120", "road_name": "Nicholson Rd", "location_d": "N of Bannister Rd", "traffic_ye": "2013\/14", "collection": "Volume", "mon_sun": 49760.0, "mon_fri": 53580.0, "pct_heavy_": 0.0, "pct_heavy1": 0.0, "network_pe": "No", "lg_no": "104", "lg_name": "Gosnells (C)", "ra_no": 7, "ra_name": "Metropolitan" }, "geometry": { "type": "Point", "coordinates": [ 115.932675003000114, -32.056730010999949 ] } },
{ "type": "Feature", "properties": { "site_no": "7124", "road_name": "William St (Beckenham)", "location_d": "N of Cosmos St", "traffic_ye": "2013\/14", "collection": "Class", "mon_sun": 8230.0, "mon_fri": 9460.0, "pct_heavy_": 7.9, "pct_heavy1": 8.6, "network_pe": "No", "lg_no": "104", "lg_name": "Gosnells (C)", "ra_no": 7, "ra_name": "Metropolitan" }, "geometry": { "type": "Point", "coordinates": [ 115.971818960000078, -32.00814500599995 ] } },
{ "type": "Feature", "properties": { "site_no": "7130", "road_name": "Stakehill Rd", "location_d": "E of Ennis Av", "traffic_ye": "2014\/15", "collection": "Class", "mon_sun": 10520.0, "mon_fri": 11140.0, "pct_heavy_": 7.0, "pct_heavy1": 9.1, "network_pe": "No", "lg_no": "107", "lg_name": "Rockingham (C)", "ra_no": 7, "ra_name": "Metropolitan" }, "geometry": { "type": "Point", "coordinates": [ 115.77886996200003, -32.382750034999958 ] } },
{ "type": "Feature", "properties": { "site_no": "7136", "road_name": "Great Eastern Hwy", "location_d": "W of Forrestania Southern Cross Rd", "traffic_ye": "2014\/15", "collection": "Class", "mon_sun": 1130.0, "mon_fri": 1170.0, "pct_heavy_": 36.3, "pct_heavy1": 37.7, "network_pe": "Yes", "lg_no": "611", "lg_name": "Yilgarn", "ra_no": 8, "ra_name": "Wheatbelt" }, "geometry": { "type": "Point", "coordinates": [ 119.157042034000028, -31.29797303599997 ] } },
{ "type": "Feature", "properties": { "site_no": "7145", "road_name": "Northam York Rd", "location_d": "S of Northam Pithara Rd", "traffic_ye": "2014\/15", "collection": "Class", "mon_sun": 1100.0, "mon_fri": 1260.0, "pct_heavy_": 14.9, "pct_heavy1": 15.9, "network_pe": "Yes", "lg_no": "421", "lg_name": "Northam", "ra_no": 8, "ra_name": "Wheatbelt" }, "geometry": { "type": "Point", "coordinates": [ 116.751025011000024, -31.734169970999972 ] } },
{ "type": "Feature", "properties": { "site_no": "7157", "road_name": "Bruce Rock Quairading Rd", "location_d": "E of Kelly Rd", "traffic_ye": "2014\/15", "collection": "Class", "mon_sun": 340.0, "mon_fri": 350.0, "pct_heavy_": 17.5, "pct_heavy1": 20.3, "network_pe": "Yes", "lg_no": "424", "lg_name": "Quairading", "ra_no": 8, "ra_name": "Wheatbelt" }, "geometry": { "type": "Point", "coordinates": [ 117.431309968000036, -31.998140027999966 ] } },
{ "type": "Feature", "properties": { "site_no": "7175", "road_name": "Bruce Rock Merredin Rd", "location_d": "S of Great Eastern Hwy", "traffic_ye": "2014\/15", "collection": "Class", "mon_sun": 260.0, "mon_fri": 280.0, "pct_heavy_": 17.3, "pct_heavy1": 18.9, "network_pe": "Yes", "lg_no": "414", "lg_name": "Merredin", "ra_no": 8, "ra_name": "Wheatbelt" }, "geometry": { "type": "Point", "coordinates": [ 118.260247002000014, -31.533270043999945 ] } },
{ "type": "Feature", "properties": { "site_no": "7182", "road_name": "Bruce Rock Narembeen Rd", "location_d": "W of Bruce Rock South Rd", "traffic_ye": "2014\/15", "collection": "Class", "mon_sun": 230.0, "mon_fri": 250.0, "pct_heavy_": 23.5, "pct_heavy1": 26.3, "network_pe": "No", "lg_no": "403", "lg_name": "Bruce Rock", "ra_no": 8, "ra_name": "Wheatbelt" }, "geometry": { "type": "Point", "coordinates": [ 118.175570015000076, -31.909060030999967 ] } },
{ "type": "Feature", "properties": { "site_no": "7600", "road_name": "Mandurah Rd", "location_d": "S of Dampier Rd", "traffic_ye": "2011\/12", "collection": "Class", "mon_sun": 24170.0, "mon_fri": 25750.0, "pct_heavy_": 5.2, "pct_heavy1": 5.6, "network_pe": "No", "lg_no": "107", "lg_name": "Rockingham (C)", "ra_no": 7, "ra_name": "Metropolitan" }, "geometry": { "type": "Point", "coordinates": [ 115.774189974, -32.427256955999951 ] } },
{ "type": "Feature", "properties": { "site_no": "7601", "road_name": "West Coast Hwy", "location_d": "N of North St", "traffic_ye": "2013\/14", "collection": "Volume", "mon_sun": 28900.0, "mon_fri": 30500.0, "pct_heavy_": 0.0, "pct_heavy1": 0.0, "network_pe": "No", "lg_no": "122", "lg_name": "Nedlands (C)", "ra_no": 7, "ra_name": "Metropolitan" }, "geometry": { "type": "Point", "coordinates": [ 115.766724008000082, -31.976090023999973 ] } },
{ "type": "Feature", "properties": { "site_no": "7602", "road_name": "Cockburn Rd", "location_d": "S of Rockingham Rd", "traffic_ye": "2014\/15", "collection": "Class", "mon_sun": 16750.0, "mon_fri": 18800.0, "pct_heavy_": 7.1, "pct_heavy1": 8.8, "network_pe": "No", "lg_no": "103", "lg_name": "Cockburn (C)", "ra_no": 7, "ra_name": "Metropolitan" }, "geometry": { "type": "Point", "coordinates": [ 115.76123404000009, -32.079376977999971 ] } },
{ "type": "Feature", "properties": { "site_no": "7603", "road_name": "Cockburn Rd", "location_d": "N of Rockingham Rd", "traffic_ye": "2009\/10", "collection": "Class", "mon_sun": 11570.0, "mon_fri": 12160.0, "pct_heavy_": 9.0, "pct_heavy1": 9.0, "network_pe": "No", "lg_no": "105", "lg_name": "Kwinana (C)", "ra_no": 7, "ra_name": "Metropolitan" }, "geometry": { "type": "Point", "coordinates": [ 115.782053976000043, -32.19293902499993 ] } },
{ "type": "Feature", "properties": { "site_no": "7605", "road_name": "Curtin Av", "location_d": "N of Eric St", "traffic_ye": "2013\/14", "collection": "Class", "mon_sun": 22740.0, "mon_fri": 24000.0, "pct_heavy_": 6.8, "pct_heavy1": 6.8, "network_pe": "No", "lg_no": "116", "lg_name": "Cottesloe (T)", "ra_no": 7, "ra_name": "Metropolitan" }, "geometry": { "type": "Point", "coordinates": [ 115.763332010000113, -31.989092989999961 ] } },
{ "type": "Feature", "properties": { "site_no": "7606", "road_name": "Tonkin Hwy (Southbound) off to Guildford Rd", "location_d": "SB Off Ramp to Guildford Rd", "traffic_ye": "2012\/13", "collection": "Volume", "mon_sun": 2390.0, "mon_fri": 2630.0, "pct_heavy_": 0.0, "pct_heavy1": 0.0, "network_pe": "No", "lg_no": "112", "lg_name": "Bayswater (C)", "ra_no": 7, "ra_name": "Metropolitan" }, "geometry": { "type": "Point", "coordinates": [ 115.928381979000051, -31.921154011999935 ] } },
{ "type": "Feature", "properties": { "site_no": "7607", "road_name": "William St", "location_d": "S of Aberdeen St", "traffic_ye": "2013\/14", "collection": "Class", "mon_sun": 9150.0, "mon_fri": 9830.0, "pct_heavy_": 4.2, "pct_heavy1": 4.2, "network_pe": "No", "lg_no": "124", "lg_name": "Perth (C)", "ra_no": 7, "ra_name": "Metropolitan" }, "geometry": { "type": "Point", "coordinates": [ 115.860155957000075, -31.947739978999945 ] } },
{ "type": "Feature", "properties": { "site_no": "7608", "road_name": "Mitchell Fwy (Northbound) off to Hay St", "location_d": "NB N of Mounts Bay Rd Off Ramp", "traffic_ye": "2013\/14", "collection": "Class", "mon_sun": 13380.0, "mon_fri": 15390.0, "pct_heavy_": 1.8, "pct_heavy1": 2.0, "network_pe": "No", "lg_no": "124", "lg_name": "Perth (C)", "ra_no": 7, "ra_name": "Metropolitan" }, "geometry": { "type": "Point", "coordinates": [ 115.848699017000058, -31.957189993999975 ] } },
{ "type": "Feature", "properties": { "site_no": "7611", "road_name": "The Esplanade (Perth)", "location_d": "E of William St", "traffic_ye": "2014\/15", "collection": "Volume", "mon_sun": 24700.0, "mon_fri": 26820.0, "pct_heavy_": 0.0, "pct_heavy1": 0.0, "network_pe": "No", "lg_no": "124", "lg_name": "Perth (C)", "ra_no": 7, "ra_name": "Metropolitan" }, "geometry": { "type": "Point", "coordinates": [ 115.857127955, -31.956342954999968 ] } },
{ "type": "Feature", "properties": { "site_no": "7614", "road_name": "Riverside Dr on to Mitchell Fwy (Southbound)", "location_d": "W of William St", "traffic_ye": "2014\/15", "collection": "Class", "mon_sun": 11490.0, "mon_fri": 12380.0, "pct_heavy_": 3.6, "pct_heavy1": 3.6, "network_pe": "No", "lg_no": "124", "lg_name": "Perth (C)", "ra_no": 7, "ra_name": "Metropolitan" }, "geometry": { "type": "Point", "coordinates": [ 115.853809982000044, -31.958378977999928 ] } },
{ "type": "Feature", "properties": { "site_no": "7616", "road_name": "Mitchell Fwy (Southbound) off to Riverside Dr", "location_d": "EB E of Mitchell Fwy (Southbound) off to Spring St Link", "traffic_ye": "2013\/14", "collection": "Volume", "mon_sun": 8130.0, "mon_fri": 8720.0, "pct_heavy_": 0.0, "pct_heavy1": 0.0, "network_pe": "No", "lg_no": "124", "lg_name": "Perth (C)", "ra_no": 7, "ra_name": "Metropolitan" }, "geometry": { "type": "Point", "coordinates": [ 115.850690021000105, -31.957280032999964 ] } },
{ "type": "Feature", "properties": { "site_no": "7621", "road_name": "Wittenoom St", "location_d": "W of Bennett St", "traffic_ye": "2013\/14", "collection": "Class", "mon_sun": 3320.0, "mon_fri": 3570.0, "pct_heavy_": 4.7, "pct_heavy1": 4.7, "network_pe": "No", "lg_no": "124", "lg_name": "Perth (C)", "ra_no": 7, "ra_name": "Metropolitan" }, "geometry": { "type": "Point", "coordinates": [ 115.872885971000059, -31.953272038999955 ] } },
{ "type": "Feature", "properties": { "site_no": "7623", "road_name": "Albany Hwy", "location_d": "S of Dorothy St", "traffic_ye": "2013\/14", "collection": "Class", "mon_sun": 15940.0, "mon_fri": 17210.0, "pct_heavy_": 6.2, "pct_heavy1": 6.9, "network_pe": "No", "lg_no": "104", "lg_name": "Gosnells (C)", "ra_no": 7, "ra_name": "Metropolitan" }, "geometry": { "type": "Point", "coordinates": [ 116.002925976000014, -32.072521973999983 ] } },
{ "type": "Feature", "properties": { "site_no": "7624", "road_name": "Wanneroo Rd", "location_d": "S of Warwick Rd", "traffic_ye": "2014\/15", "collection": "Volume", "mon_sun": 25590.0, "mon_fri": 31520.0, "pct_heavy_": 0.0, "pct_heavy1": 0.0, "network_pe": "No", "lg_no": "110", "lg_name": "Wanneroo (C)", "ra_no": 7, "ra_name": "Metropolitan" }, "geometry": { "type": "Point", "coordinates": [ 115.821898019000059, -31.83598098899995 ] } },
{ "type": "Feature", "properties": { "site_no": "7628", "road_name": "Hepburn Av", "location_d": "E of Wanneroo Rd", "traffic_ye": "2014\/15", "collection": "Class", "mon_sun": 21880.0, "mon_fri": 23110.0, "pct_heavy_": 7.3, "pct_heavy1": 7.9, "network_pe": "No", "lg_no": "110", "lg_name": "Wanneroo (C)", "ra_no": 7, "ra_name": "Metropolitan" }, "geometry": { "type": "Point", "coordinates": [ 115.82341604600002, -31.819922021999954 ] } },
{ "type": "Feature", "properties": { "site_no": "7630", "road_name": "High St", "location_d": "E of Stirling Hwy", "traffic_ye": "2014\/15", "collection": "Volume", "mon_sun": 39940.0, "mon_fri": 42800.0, "pct_heavy_": 0.0, "pct_heavy1": 0.0, "network_pe": "No", "lg_no": "118", "lg_name": "Fremantle (C)", "ra_no": 7, "ra_name": "Metropolitan" }, "geometry": { "type": "Point", "coordinates": [ 115.76464296600011, -32.050696974999937 ] } },
{ "type": "Feature", "properties": { "site_no": "7631", "road_name": "Hepburn Av", "location_d": "W of Mitchell Fwy", "traffic_ye": "2014\/15", "collection": "Volume", "mon_sun": 36920.0, "mon_fri": 36860.0, "pct_heavy_": 0.0, "pct_heavy1": 0.0, "network_pe": "No", "lg_no": "131", "lg_name": "Joondalup (C)", "ra_no": 7, "ra_name": "Metropolitan" }, "geometry": { "type": "Point", "coordinates": [ 115.779220966000011, -31.817593007999957 ] } },
{ "type": "Feature", "properties": { "site_no": "7640", "road_name": "Great Eastern Hwy on to Graham Farmer Fwy (Eastbound)", "location_d": "SB S of Great Eastern Hwy", "traffic_ye": "2012\/13", "collection": "Volume", "mon_sun": 4910.0, "mon_fri": 4910.0, "pct_heavy_": 0.0, "pct_heavy1": 0.0, "network_pe": "No", "lg_no": "113", "lg_name": "Belmont (C)", "ra_no": 7, "ra_name": "Metropolitan" }, "geometry": { "type": "Point", "coordinates": [ 115.905950958000076, -31.96018898899996 ] } },
{ "type": "Feature", "properties": { "site_no": "7641", "road_name": "Graham Farmer Fwy (Westbound) off to Great Eastern Hwy", "location_d": "WB S of Great Eastern Hwy", "traffic_ye": "2012\/13", "collection": "Volume", "mon_sun": 6490.0, "mon_fri": 6300.0, "pct_heavy_": 0.0, "pct_heavy1": 0.0, "network_pe": "No", "lg_no": "129", "lg_name": "Victoria Park (T)", "ra_no": 7, "ra_name": "Metropolitan" }, "geometry": { "type": "Point", "coordinates": [ 115.905729980000032, -31.960585011999964 ] } },
{ "type": "Feature", "properties": { "site_no": "7642", "road_name": "Orrong Rd", "location_d": "W of Francisco St", "traffic_ye": "2013\/14", "collection": "Volume", "mon_sun": 61160.0, "mon_fri": 65160.0, "pct_heavy_": 0.0, "pct_heavy1": 0.0, "network_pe": "No", "lg_no": "113", "lg_name": "Belmont (C)", "ra_no": 7, "ra_name": "Metropolitan" }, "geometry": { "type": "Point", "coordinates": [ 115.90924102300005, -31.963268963999951 ] } },
{ "type": "Feature", "properties": { "site_no": "7643", "road_name": "Victoria Park Dr", "location_d": "S of Graham Farmer Fwy", "traffic_ye": "2013\/14", "collection": "Volume", "mon_sun": 11250.0, "mon_fri": 12080.0, "pct_heavy_": 0.0, "pct_heavy1": 0.0, "network_pe": "No", "lg_no": "129", "lg_name": "Victoria Park (T)", "ra_no": 7, "ra_name": "Metropolitan" }, "geometry": { "type": "Point", "coordinates": [ 115.892298964, -31.950666961999953 ] } },
{ "type": "Feature", "properties": { "site_no": "7644", "road_name": "Victoria Park Dr (Eastbound)", "location_d": "At Bridge Over Graham Farmer Fwy", "traffic_ye": "2010\/11", "collection": "Volume", "mon_sun": 5250.0, "mon_fri": 5560.0, "pct_heavy_": 0.0, "pct_heavy1": 0.0, "network_pe": "No", "lg_no": "129", "lg_name": "Victoria Park (T)", "ra_no": 7, "ra_name": "Metropolitan" }, "geometry": { "type": "Point", "coordinates": [ 115.893265963000076, -31.94965402899993 ] } },
{ "type": "Feature", "properties": { "site_no": "7645", "road_name": "East Pde", "location_d": "S of Summers St", "traffic_ye": "2013\/14", "collection": "Volume", "mon_sun": 39850.0, "mon_fri": 42240.0, "pct_heavy_": 0.0, "pct_heavy1": 0.0, "network_pe": "No", "lg_no": "130", "lg_name": "Vincent (C)", "ra_no": 7, "ra_name": "Metropolitan" }, "geometry": { "type": "Point", "coordinates": [ 115.876934958000092, -31.945945980999966 ] } },
{ "type": "Feature", "properties": { "site_no": "7646", "road_name": "Loftus St on to Graham Farmer Fwy (Eastbound)", "location_d": "E of Old Aberdeen Pl", "traffic_ye": "2013\/14", "collection": "Class", "mon_sun": 17760.0, "mon_fri": 19050.0, "pct_heavy_": 5.8, "pct_heavy1": 5.8, "network_pe": "No", "lg_no": "130", "lg_name": "Vincent (C)", "ra_no": 7, "ra_name": "Metropolitan" }, "geometry": { "type": "Point", "coordinates": [ 115.848674037000023, -31.942384976999957 ] } },
{ "type": "Feature", "properties": { "site_no": "7648", "road_name": "Great Eastern Hwy (Westbound) on to Graham Farmer Fwy (Westbound)", "location_d": "WB W of Great Eastern Hwy", "traffic_ye": "2012\/13", "collection": "Class", "mon_sun": 7270.0, "mon_fri": 8700.0, "pct_heavy_": 4.5, "pct_heavy1": 5.8, "network_pe": "No", "lg_no": "129", "lg_name": "Victoria Park (T)", "ra_no": 7, "ra_name": "Metropolitan" }, "geometry": { "type": "Point", "coordinates": [ 115.903685996000036, -31.959420001999945 ] } },
{ "type": "Feature", "properties": { "site_no": "7649", "road_name": "Great Eastern Hwy (Eastbound) on to Graham Farmer Fwy (Westbound)", "location_d": "WB W of Great Eastern Hwy", "traffic_ye": "2012\/13", "collection": "Volume", "mon_sun": 3810.0, "mon_fri": 4020.0, "pct_heavy_": 0.0, "pct_heavy1": 0.0, "network_pe": "No", "lg_no": "129", "lg_name": "Victoria Park (T)", "ra_no": 7, "ra_name": "Metropolitan" }, "geometry": { "type": "Point", "coordinates": [ 115.902393981000046, -31.957564970999954 ] } },
{ "type": "Feature", "properties": { "site_no": "7650", "road_name": "Graham Farmer Fwy (Eastbound) off to Great Eastern Hwy", "location_d": "EB W of Great Eastern Hwy", "traffic_ye": "2012\/13", "collection": "Volume", "mon_sun": 16370.0, "mon_fri": 18270.0, "pct_heavy_": 0.0, "pct_heavy1": 0.0, "network_pe": "No", "lg_no": "129", "lg_name": "Victoria Park (T)", "ra_no": 7, "ra_name": "Metropolitan" }, "geometry": { "type": "Point", "coordinates": [ 115.902461967000022, -31.956930034999967 ] } },
{ "type": "Feature", "properties": { "site_no": "7652", "road_name": "Graham Farmer Fwy (Westbound) off to Victoria Park Dr", "location_d": "WB E of Victoria Park Rd", "traffic_ye": "2012\/13", "collection": "Class", "mon_sun": 490.0, "mon_fri": 440.0, "pct_heavy_": 4.1, "pct_heavy1": 5.6, "network_pe": "No", "lg_no": "129", "lg_name": "Victoria Park (T)", "ra_no": 7, "ra_name": "Metropolitan" }, "geometry": { "type": "Point", "coordinates": [ 115.894666043000015, -31.951240956999982 ] } },
{ "type": "Feature", "properties": { "site_no": "7653", "road_name": "Victoria Park Dr on to Graham Farmer Fwy (Westbound)", "location_d": "WB W of Victoria Park Rd", "traffic_ye": "2012\/13", "collection": "Class", "mon_sun": 6700.0, "mon_fri": 6300.0, "pct_heavy_": 1.8, "pct_heavy1": 2.3, "network_pe": "No", "lg_no": "129", "lg_name": "Victoria Park (T)", "ra_no": 7, "ra_name": "Metropolitan" }, "geometry": { "type": "Point", "coordinates": [ 115.892409957000041, -31.949167967999983 ] } },
{ "type": "Feature", "properties": { "site_no": "7655", "road_name": "Victoria Park Dr to Belmont Park", "location_d": "WB W of Victoria Park Rd", "traffic_ye": "2014\/15", "collection": "Volume", "mon_sun": 280.0, "mon_fri": 180.0, "pct_heavy_": 0.0, "pct_heavy1": 0.0, "network_pe": "No", "lg_no": "129", "lg_name": "Victoria Park (T)", "ra_no": 7, "ra_name": "Metropolitan" }, "geometry": { "type": "Point", "coordinates": [ 115.890867956000065, -31.947635025999944 ] } },
{ "type": "Feature", "properties": { "site_no": "7656", "road_name": "Belmont Park & Victoria Park Dr on to Graham Farmer Fwy (Eastbound)", "location_d": "EB E of Victoria Park Rd", "traffic_ye": "2012\/13", "collection": "Class", "mon_sun": 660.0, "mon_fri": 550.0, "pct_heavy_": 6.5, "pct_heavy1": 8.1, "network_pe": "No", "lg_no": "129", "lg_name": "Victoria Park (T)", "ra_no": 7, "ra_name": "Metropolitan" }, "geometry": { "type": "Point", "coordinates": [ 115.894574998000053, -31.950056 ] } },
{ "type": "Feature", "properties": { "site_no": "7657", "road_name": "East Pde on to Graham Farmer Fwy (Eastbound)", "location_d": "E of East Pde", "traffic_ye": "2013\/14", "collection": "Class", "mon_sun": 15600.0, "mon_fri": 16170.0, "pct_heavy_": 4.3, "pct_heavy1": 5.1, "network_pe": "No", "lg_no": "130", "lg_name": "Vincent (C)", "ra_no": 7, "ra_name": "Metropolitan" }, "geometry": { "type": "Point", "coordinates": [ 115.878431024000051, -31.947481026999981 ] } },
{ "type": "Feature", "properties": { "site_no": "7658", "road_name": "Graham Farmer Fwy (Westbound) off to East Pde", "location_d": "WB E of East Pde", "traffic_ye": "2013\/14", "collection": "Class", "mon_sun": 15260.0, "mon_fri": 15990.0, "pct_heavy_": 4.2, "pct_heavy1": 5.2, "network_pe": "No", "lg_no": "124", "lg_name": "Perth (C)", "ra_no": 7, "ra_name": "Metropolitan" }, "geometry": { "type": "Point", "coordinates": [ 115.8790279870001, -31.94786497199993 ] } },
{ "type": "Feature", "properties": { "site_no": "7659", "road_name": "East Pde to Lord St", "location_d": "WB W of East Pde", "traffic_ye": "2013\/14", "collection": "Class", "mon_sun": 24940.0, "mon_fri": 26570.0, "pct_heavy_": 6.0, "pct_heavy1": 6.0, "network_pe": "No", "lg_no": "124", "lg_name": "Perth (C)", "ra_no": 7, "ra_name": "Metropolitan" }, "geometry": { "type": "Point", "coordinates": [ 115.875889999000037, -31.947993989999926 ] } },
{ "type": "Feature", "properties": { "site_no": "7660", "road_name": "Lord St to East Pde", "location_d": "EB W of East Pde", "traffic_ye": "2013\/14", "collection": "Class", "mon_sun": 27660.0, "mon_fri": 29470.0, "pct_heavy_": 5.3, "pct_heavy1": 5.3, "network_pe": "No", "lg_no": "130", "lg_name": "Vincent (C)", "ra_no": 7, "ra_name": "Metropolitan" }, "geometry": { "type": "Point", "coordinates": [ 115.874888962000114, -31.947624044999941 ] } },
{ "type": "Feature", "properties": { "site_no": "7661", "road_name": "East Pde to Lord St", "location_d": "WB E of Lord St", "traffic_ye": "2013\/14", "collection": "Class", "mon_sun": 7640.0, "mon_fri": 7980.0, "pct_heavy_": 5.7, "pct_heavy1": 7.3, "network_pe": "No", "lg_no": "124", "lg_name": "Perth (C)", "ra_no": 7, "ra_name": "Metropolitan" }, "geometry": { "type": "Point", "coordinates": [ 115.87125603700008, -31.949773988999937 ] } },
{ "type": "Feature", "properties": { "site_no": "7662", "road_name": "Lord St to East Pde", "location_d": "EB E of Lord St", "traffic_ye": "2013\/14", "collection": "Class", "mon_sun": 11080.0, "mon_fri": 11130.0, "pct_heavy_": 4.8, "pct_heavy1": 6.7, "network_pe": "No", "lg_no": "130", "lg_name": "Vincent (C)", "ra_no": 7, "ra_name": "Metropolitan" }, "geometry": { "type": "Point", "coordinates": [ 115.872192016000099, -31.948713016999932 ] } },
{ "type": "Feature", "properties": { "site_no": "7663", "road_name": "Graham Farmer Fwy (Westbound) off to James St", "location_d": "WB N of James St", "traffic_ye": "2013\/14", "collection": "Class", "mon_sun": 2310.0, "mon_fri": 2470.0, "pct_heavy_": 5.7, "pct_heavy1": 5.7, "network_pe": "No", "lg_no": "124", "lg_name": "Perth (C)", "ra_no": 7, "ra_name": "Metropolitan" }, "geometry": { "type": "Point", "coordinates": [ 115.851285977000074, -31.94447599199998 ] } },
{ "type": "Feature", "properties": { "site_no": "2022", "road_name": "Thomas Rd", "location_d": "E of South Western Hwy", "traffic_ye": "2014\/15", "collection": "Class", "mon_sun": 6560.0, "mon_fri": 6870.0, "pct_heavy_": 14.2, "pct_heavy1": 17.3, "network_pe": "No", "lg_no": "108", "lg_name": "Serpentine - Jarrahdale", "ra_no": 7, "ra_name": "Metropolitan" }, "geometry": { "type": "Point", "coordinates": [ 116.007239039000069, -32.204874979999943 ] } },
{ "type": "Feature", "properties": { "site_no": "7664", "road_name": "Graham Farmer Fwy (Westbound) to Mitchell Fwy (Southbound)", "location_d": "SB S of Graham Farmer Fwy (Westbound) off to James St", "traffic_ye": "2013\/14", "collection": "Class", "mon_sun": 6440.0, "mon_fri": 6900.0, "pct_heavy_": 7.6, "pct_heavy1": 7.6, "network_pe": "No", "lg_no": "124", "lg_name": "Perth (C)", "ra_no": 7, "ra_name": "Metropolitan" }, "geometry": { "type": "Point", "coordinates": [ 115.8513399630001, -31.944175955999977 ] } },
{ "type": "Feature", "properties": { "site_no": "7665", "road_name": "James St", "location_d": "EB E of Graham Farmer Fwy on to James St", "traffic_ye": "2013\/14", "collection": "Volume", "mon_sun": 9170.0, "mon_fri": 9770.0, "pct_heavy_": 0.0, "pct_heavy1": 0.0, "network_pe": "No", "lg_no": "124", "lg_name": "Perth (C)", "ra_no": 7, "ra_name": "Metropolitan" }, "geometry": { "type": "Point", "coordinates": [ 115.85184999800002, -31.945651982999944 ] } },
{ "type": "Feature", "properties": { "site_no": "7666", "road_name": "Mitchell Fwy (Southbound) off to Wellington St", "location_d": "SB N of Wellington St", "traffic_ye": "2013\/14", "collection": "Class", "mon_sun": 10190.0, "mon_fri": 10920.0, "pct_heavy_": 2.2, "pct_heavy1": 2.2, "network_pe": "No", "lg_no": "124", "lg_name": "Perth (C)", "ra_no": 7, "ra_name": "Metropolitan" }, "geometry": { "type": "Point", "coordinates": [ 115.851064998000069, -31.946185991999979 ] } },
{ "type": "Feature", "properties": { "site_no": "7667", "road_name": "Wellington St on to Mitchell Fwy (Northbound)", "location_d": "NB N of Wellington St", "traffic_ye": "2013\/14", "collection": "Class", "mon_sun": 8420.0, "mon_fri": 9390.0, "pct_heavy_": 1.9, "pct_heavy1": 2.0, "network_pe": "No", "lg_no": "124", "lg_name": "Perth (C)", "ra_no": 7, "ra_name": "Metropolitan" }, "geometry": { "type": "Point", "coordinates": [ 115.849255993000028, -31.945077987999976 ] } },
{ "type": "Feature", "properties": { "site_no": "7668", "road_name": "Graham Farmer Fwy (Westbound) off to Loftus St", "location_d": "WB E of Loftus St", "traffic_ye": "2014\/15", "collection": "Class", "mon_sun": 16500.0, "mon_fri": 18370.0, "pct_heavy_": 4.3, "pct_heavy1": 4.7, "network_pe": "No", "lg_no": "124", "lg_name": "Perth (C)", "ra_no": 7, "ra_name": "Metropolitan" }, "geometry": { "type": "Point", "coordinates": [ 115.848223021000067, -31.943463974999929 ] } },
{ "type": "Feature", "properties": { "site_no": "7675", "road_name": "Mitchell Fwy (Northbound) off to Hodges Dr", "location_d": "NB S of Hodges Dr", "traffic_ye": "2013\/14", "collection": "Class", "mon_sun": 10560.0, "mon_fri": 12030.0, "pct_heavy_": 4.4, "pct_heavy1": 4.9, "network_pe": "No", "lg_no": "131", "lg_name": "Joondalup (C)", "ra_no": 7, "ra_name": "Metropolitan" }, "geometry": { "type": "Point", "coordinates": [ 115.764284002000082, -31.756855002999938 ] } },
{ "type": "Feature", "properties": { "site_no": "7677", "road_name": "Hodges Dr", "location_d": "W of Mitchell Fwy", "traffic_ye": "2014\/15", "collection": "Class", "mon_sun": 15030.0, "mon_fri": 15940.0, "pct_heavy_": 4.6, "pct_heavy1": 5.3, "network_pe": "No", "lg_no": "131", "lg_name": "Joondalup (C)", "ra_no": 7, "ra_name": "Metropolitan" }, "geometry": { "type": "Point", "coordinates": [ 115.75992903100007, -31.755881964999958 ] } },
{ "type": "Feature", "properties": { "site_no": "7680", "road_name": "Mitchell Fwy", "location_d": "NB N of Ocean Reef Rd", "traffic_ye": "2014\/15", "collection": "Volume", "mon_sun": 38160.0, "mon_fri": 44400.0, "pct_heavy_": 0.0, "pct_heavy1": 0.0, "network_pe": "No", "lg_no": "131", "lg_name": "Joondalup (C)", "ra_no": 7, "ra_name": "Metropolitan" }, "geometry": { "type": "Point", "coordinates": [ 115.7746359570001, -31.76725197799993 ] } },
{ "type": "Feature", "properties": { "site_no": "7681", "road_name": "Mitchell Fwy", "location_d": "SB N of Ocean Reef Rd", "traffic_ye": "2014\/15", "collection": "Class", "mon_sun": 39000.0, "mon_fri": 40950.0, "pct_heavy_": 7.8, "pct_heavy1": 9.4, "network_pe": "No", "lg_no": "131", "lg_name": "Joondalup (C)", "ra_no": 7, "ra_name": "Metropolitan" }, "geometry": { "type": "Point", "coordinates": [ 115.776317042000073, -31.768358974999956 ] } },
{ "type": "Feature", "properties": { "site_no": "7682", "road_name": "Mitchell Fwy", "location_d": "NB At Ocean Reed Rd Bridge", "traffic_ye": "2014\/15", "collection": "Volume", "mon_sun": 33810.0, "mon_fri": 38160.0, "pct_heavy_": 0.0, "pct_heavy1": 0.0, "network_pe": "No", "lg_no": "131", "lg_name": "Joondalup (C)", "ra_no": 7, "ra_name": "Metropolitan" }, "geometry": { "type": "Point", "coordinates": [ 115.77994896000007, -31.776710044999955 ] } },
{ "type": "Feature", "properties": { "site_no": "7683", "road_name": "Mitchell Fwy", "location_d": "SB At Ocean Reef Rd Bridge", "traffic_ye": "2014\/15", "collection": "Volume", "mon_sun": 34390.0, "mon_fri": 39770.0, "pct_heavy_": 0.0, "pct_heavy1": 0.0, "network_pe": "No", "lg_no": "131", "lg_name": "Joondalup (C)", "ra_no": 7, "ra_name": "Metropolitan" }, "geometry": { "type": "Point", "coordinates": [ 115.780457988000066, -31.777166001999941 ] } },
{ "type": "Feature", "properties": { "site_no": "7684", "road_name": "Graham Farmer Fwy", "location_d": "At Windan Bridge", "traffic_ye": "2014\/15", "collection": "Class", "mon_sun": 97180.0, "mon_fri": 105830.0, "pct_heavy_": 6.1, "pct_heavy1": 6.9, "network_pe": "Yes", "lg_no": "124", "lg_name": "Perth (C)", "ra_no": 7, "ra_name": "Metropolitan" }, "geometry": { "type": "Point", "coordinates": [ 115.886251013000091, -31.947310008999978 ] } },
{ "type": "Feature", "properties": { "site_no": "7688", "road_name": "Orrong Rd", "location_d": "W of Roe Hwy", "traffic_ye": "2014\/15", "collection": "Volume", "mon_sun": 47340.0, "mon_fri": 57140.0, "pct_heavy_": 0.0, "pct_heavy1": 0.0, "network_pe": "No", "lg_no": "114", "lg_name": "Canning (C)", "ra_no": 7, "ra_name": "Metropolitan" }, "geometry": { "type": "Point", "coordinates": [ 115.971330977000093, -32.002665010999976 ] } },
{ "type": "Feature", "properties": { "site_no": "8047", "road_name": "North West Coastal Hwy", "location_d": "N of McGlades Rd", "traffic_ye": "2013\/14", "collection": "Class", "mon_sun": 810.0, "mon_fri": 800.0, "pct_heavy_": 31.4, "pct_heavy1": 32.2, "network_pe": "No", "lg_no": "803", "lg_name": "Carnarvon", "ra_no": 14, "ra_name": "Mid West-Gascoyne" }, "geometry": { "type": "Point", "coordinates": [ 113.766029962000047, -24.808269997999957 ] } },
{ "type": "Feature", "properties": { "site_no": "8048", "road_name": "North West Coastal Hwy", "location_d": "S of Point Samson Roebourne Rd", "traffic_ye": "2014\/15", "collection": "Class", "mon_sun": 2410.0, "mon_fri": 2560.0, "pct_heavy_": 26.4, "pct_heavy1": 27.9, "network_pe": "Yes", "lg_no": "814", "lg_name": "Karratha (C)", "ra_no": 11, "ra_name": "Pilbara" }, "geometry": { "type": "Point", "coordinates": [ 117.112049968000065, -20.759849971999927 ] } },
{ "type": "Feature", "properties": { "site_no": "8050", "road_name": "Marble Bar Rd", "location_d": "S of Great Northern Hwy", "traffic_ye": "2014\/15", "collection": "Class", "mon_sun": 450.0, "mon_fri": 440.0, "pct_heavy_": 76.1, "pct_heavy1": 76.3, "network_pe": "Yes", "lg_no": "813", "lg_name": "Port Hedland (T)", "ra_no": 11, "ra_name": "Pilbara" }, "geometry": { "type": "Point", "coordinates": [ 118.997399956000109, -20.446939972999928 ] } },
{ "type": "Feature", "properties": { "site_no": "8060", "road_name": "North West Coastal Hwy", "location_d": "S of Bush Bay Rd", "traffic_ye": "2014\/15", "collection": "Class", "mon_sun": 870.0, "mon_fri": 840.0, "pct_heavy_": 30.3, "pct_heavy1": 32.2, "network_pe": "Yes", "lg_no": "803", "lg_name": "Carnarvon", "ra_no": 14, "ra_name": "Mid West-Gascoyne" }, "geometry": { "type": "Point", "coordinates": [ 113.731770043000097, -24.933270043999983 ] } },
{ "type": "Feature", "properties": { "site_no": "8061", "road_name": "Minilya Exmouth Rd", "location_d": "N of North West Coastal Hwy", "traffic_ye": "2014\/15", "collection": "Class", "mon_sun": 260.0, "mon_fri": 240.0, "pct_heavy_": 17.4, "pct_heavy1": 18.6, "network_pe": "Yes", "lg_no": "803", "lg_name": "Carnarvon", "ra_no": 14, "ra_name": "Mid West-Gascoyne" }, "geometry": { "type": "Point", "coordinates": [ 113.964689999000029, -23.554199965999942 ] } },
{ "type": "Feature", "properties": { "site_no": "8062", "road_name": "Nanutarra Rd", "location_d": "E of North West Coastal Hwy", "traffic_ye": "2014\/15", "collection": "Class", "mon_sun": 130.0, "mon_fri": 130.0, "pct_heavy_": 25.9, "pct_heavy1": 25.7, "network_pe": "Yes", "lg_no": "811", "lg_name": "Ashburton", "ra_no": 11, "ra_name": "Pilbara" }, "geometry": { "type": "Point", "coordinates": [ 115.544300033, -22.50126996399996 ] } },
{ "type": "Feature", "properties": { "site_no": "8074", "road_name": "Great Northern Hwy", "location_d": "S of North West Coastal Hwy", "traffic_ye": "2013\/14", "collection": "Class", "mon_sun": 1480.0, "mon_fri": 1520.0, "pct_heavy_": 64.3, "pct_heavy1": 63.8, "network_pe": "Yes", "lg_no": "813", "lg_name": "Port Hedland (T)", "ra_no": 11, "ra_name": "Pilbara" }, "geometry": { "type": "Point", "coordinates": [ 118.453609958000015, -20.638760012999967 ] } },
{ "type": "Feature", "properties": { "site_no": "8078", "road_name": "North West Coastal Hwy", "location_d": "N of Blowholes Rd", "traffic_ye": "2014\/15", "collection": "Class", "mon_sun": 690.0, "mon_fri": 680.0, "pct_heavy_": 33.2, "pct_heavy1": 34.9, "network_pe": "Yes", "lg_no": "803", "lg_name": "Carnarvon", "ra_no": 14, "ra_name": "Mid West-Gascoyne" }, "geometry": { "type": "Point", "coordinates": [ 113.765229955000095, -24.727770009999968 ] } },
{ "type": "Feature", "properties": { "site_no": "8546", "road_name": "North West Coastal Hwy", "location_d": "W of Great Northern Hwy", "traffic_ye": "2014\/15", "collection": "Class", "mon_sun": 620.0, "mon_fri": 610.0, "pct_heavy_": 35.8, "pct_heavy1": 38.7, "network_pe": "Yes", "lg_no": "813", "lg_name": "Port Hedland (T)", "ra_no": 11, "ra_name": "Pilbara" }, "geometry": { "type": "Point", "coordinates": [ 118.430100031000052, -20.581789990999937 ] } },
{ "type": "Feature", "properties": { "site_no": "8564", "road_name": "Great Northern Hwy", "location_d": "S of Karijini Dr", "traffic_ye": "2013\/14", "collection": "Class", "mon_sun": 720.0, "mon_fri": 730.0, "pct_heavy_": 58.6, "pct_heavy1": 58.9, "network_pe": "Yes", "lg_no": "811", "lg_name": "Ashburton", "ra_no": 11, "ra_name": "Pilbara" }, "geometry": { "type": "Point", "coordinates": [ 118.750964986000099, -22.73675299599995 ] } },
{ "type": "Feature", "properties": { "site_no": "9000", "road_name": "Great Northern Hwy", "location_d": "W of Derby Hwy", "traffic_ye": "2014\/15", "collection": "Class", "mon_sun": 530.0, "mon_fri": 540.0, "pct_heavy_": 20.4, "pct_heavy1": 21.6, "network_pe": "Yes", "lg_no": "003", "lg_name": "Derby - West Kimberley", "ra_no": 6, "ra_name": "Kimberley" }, "geometry": { "type": "Point", "coordinates": [ 123.690264955000075, -17.68635999299994 ] } },
{ "type": "Feature", "properties": { "site_no": "9001", "road_name": "Great Northern Hwy", "location_d": "S of Broome Rd", "traffic_ye": "2014\/15", "collection": "Class", "mon_sun": 350.0, "mon_fri": 350.0, "pct_heavy_": 30.7, "pct_heavy1": 31.2, "network_pe": "Yes", "lg_no": "001", "lg_name": "Broome", "ra_no": 6, "ra_name": "Kimberley" }, "geometry": { "type": "Point", "coordinates": [ 122.50475300700009, -17.862412957999936 ] } },
{ "type": "Feature", "properties": { "site_no": "9120", "road_name": "Derby Gibb River Rd", "location_d": "E of Derby Hwy", "traffic_ye": "2014\/15", "collection": "Class", "mon_sun": 190.0, "mon_fri": 190.0, "pct_heavy_": 15.8, "pct_heavy1": 18.2, "network_pe": "Yes", "lg_no": "003", "lg_name": "Derby - West Kimberley", "ra_no": 6, "ra_name": "Kimberley" }, "geometry": { "type": "Point", "coordinates": [ 123.709259964, -17.352447966999932 ] } },
{ "type": "Feature", "properties": { "site_no": "18634", "road_name": "Fourteen Mile Brook Rd", "location_d": "W of York Williams Rd", "traffic_ye": "2014\/15", "collection": "Class", "mon_sun": 60.0, "mon_fri": 60.0, "pct_heavy_": 23.8, "pct_heavy1": 27.7, "network_pe": "No", "lg_no": "430", "lg_name": "Williams", "ra_no": 8, "ra_name": "Wheatbelt" }, "geometry": { "type": "Point", "coordinates": [ 116.864818011000011, -32.832722034999961 ] } },
{ "type": "Feature", "properties": { "site_no": "18635", "road_name": "York Williams Rd", "location_d": "N of Fourteen Mile Brook Rd", "traffic_ye": "2013\/14", "collection": "Class", "mon_sun": 30.0, "mon_fri": 30.0, "pct_heavy_": 15.1, "pct_heavy1": 17.5, "network_pe": "No", "lg_no": "430", "lg_name": "Williams", "ra_no": 8, "ra_name": "Wheatbelt" }, "geometry": { "type": "Point", "coordinates": [ 116.883904980000011, -32.816830974999959 ] } },
{ "type": "Feature", "properties": { "site_no": "18640", "road_name": "Great Southern Hwy", "location_d": "N of Dale Kokeby Rd", "traffic_ye": "2014\/15", "collection": "Class", "mon_sun": 390.0, "mon_fri": 400.0, "pct_heavy_": 18.6, "pct_heavy1": 20.1, "network_pe": "No", "lg_no": "401", "lg_name": "Beverley", "ra_no": 8, "ra_name": "Wheatbelt" }, "geometry": { "type": "Point", "coordinates": [ 116.974888962000023, -32.210410973999956 ] } },
{ "type": "Feature", "properties": { "site_no": "18641", "road_name": "Cuballing East Rd", "location_d": "W of Munroe St", "traffic_ye": "2014\/15", "collection": "Class", "mon_sun": 170.0, "mon_fri": 180.0, "pct_heavy_": 18.9, "pct_heavy1": 23.4, "network_pe": "No", "lg_no": "405", "lg_name": "Cuballing", "ra_no": 8, "ra_name": "Wheatbelt" }, "geometry": { "type": "Point", "coordinates": [ 117.18828703600002, -32.817871998999976 ] } },
{ "type": "Feature", "properties": { "site_no": "18642", "road_name": "Tarin Rock Rd", "location_d": "W of Tarin Rock Rd North", "traffic_ye": "2014\/15", "collection": "Class", "mon_sun": 180.0, "mon_fri": 210.0, "pct_heavy_": 18.0, "pct_heavy1": 19.9, "network_pe": "No", "lg_no": "306", "lg_name": "Dumbleyung", "ra_no": 8, "ra_name": "Wheatbelt" }, "geometry": { "type": "Point", "coordinates": [ 118.229223985000075, -33.079438009999933 ] } },
{ "type": "Feature", "properties": { "site_no": "18644", "road_name": "North West Coastal Hwy", "location_d": "N of Hosken St", "traffic_ye": "2010\/11", "collection": "Class", "mon_sun": 12580.0, "mon_fri": 12960.0, "pct_heavy_": 7.4, "pct_heavy1": 8.3, "network_pe": "No", "lg_no": "505", "lg_name": "Greater Geraldton (C)", "ra_no": 14, "ra_name": "Mid West-Gascoyne" }, "geometry": { "type": "Point", "coordinates": [ 114.627699004000078, -28.734414008999977 ] } },
{ "type": "Feature", "properties": { "site_no": "18649", "road_name": "Geraldton Mount Magnet Rd", "location_d": "W of Mingenew Mullewa Rd", "traffic_ye": "2014\/15", "collection": "Class", "mon_sun": 540.0, "mon_fri": 550.0, "pct_heavy_": 25.0, "pct_heavy1": 28.4, "network_pe": "No", "lg_no": "505", "lg_name": "Greater Geraldton (C)", "ra_no": 14, "ra_name": "Mid West-Gascoyne" }, "geometry": { "type": "Point", "coordinates": [ 115.482648010000048, -28.556625971999949 ] } },
{ "type": "Feature", "properties": { "site_no": "18651", "road_name": "Geraldton Mount Magnet Rd", "location_d": "W of Great Northern Hwy", "traffic_ye": "2011\/12", "collection": "Class", "mon_sun": 320.0, "mon_fri": 350.0, "pct_heavy_": 21.2, "pct_heavy1": 22.2, "network_pe": "No", "lg_no": "704", "lg_name": "Mount Magnet", "ra_no": 14, "ra_name": "Mid West-Gascoyne" }, "geometry": { "type": "Point", "coordinates": [ 117.769770036000068, -28.131950028999938 ] } },
{ "type": "Feature", "properties": { "site_no": "18655", "road_name": "Maitland Rd", "location_d": "W of Bowes St", "traffic_ye": "2011\/12", "collection": "Class", "mon_sun": 710.0, "mon_fri": 810.0, "pct_heavy_": 30.0, "pct_heavy1": 31.6, "network_pe": "No", "lg_no": "505", "lg_name": "Greater Geraldton (C)", "ra_no": 14, "ra_name": "Mid West-Gascoyne" }, "geometry": { "type": "Point", "coordinates": [ 115.51723797800004, -28.539761964999968 ] } },
{ "type": "Feature", "properties": { "site_no": "18656", "road_name": "Goldfields Hwy", "location_d": "E of Great Northern Hwy", "traffic_ye": "2011\/12", "collection": "Class", "mon_sun": 40.0, "mon_fri": 40.0, "pct_heavy_": 22.4, "pct_heavy1": 25.8, "network_pe": "No", "lg_no": "703", "lg_name": "Meekatharra", "ra_no": 5, "ra_name": "Goldfields - Esperance" }, "geometry": { "type": "Point", "coordinates": [ 118.503170014000034, -26.584937036999975 ] } },
{ "type": "Feature", "properties": { "site_no": "18657", "road_name": "Geraldton Mount Magnet Rd", "location_d": "E of Yanget Rd", "traffic_ye": "2013\/14", "collection": "Class", "mon_sun": 660.0, "mon_fri": 700.0, "pct_heavy_": 21.4, "pct_heavy1": 24.1, "network_pe": "No", "lg_no": "505", "lg_name": "Greater Geraldton (C)", "ra_no": 14, "ra_name": "Mid West-Gascoyne" }, "geometry": { "type": "Point", "coordinates": [ 114.863715039000098, -28.723708029999951 ] } },
{ "type": "Feature", "properties": { "site_no": "18664", "road_name": "Edward Rd", "location_d": "N of Bootenal Rd", "traffic_ye": "2013\/14", "collection": "Class", "mon_sun": 1250.0, "mon_fri": 1380.0, "pct_heavy_": 21.9, "pct_heavy1": 24.4, "network_pe": "No", "lg_no": "505", "lg_name": "Greater Geraldton (C)", "ra_no": 14, "ra_name": "Mid West-Gascoyne" }, "geometry": { "type": "Point", "coordinates": [ 114.725144986000032, -28.852051028999938 ] } },
{ "type": "Feature", "properties": { "site_no": "18665", "road_name": "Chapman Valley Rd", "location_d": "E of Hall Rd", "traffic_ye": "2012\/13", "collection": "Class", "mon_sun": 7000.0, "mon_fri": 6730.0, "pct_heavy_": 4.6, "pct_heavy1": 5.3, "network_pe": "No", "lg_no": "505", "lg_name": "Greater Geraldton (C)", "ra_no": 14, "ra_name": "Mid West-Gascoyne" }, "geometry": { "type": "Point", "coordinates": [ 114.639255041000069, -28.718682985999976 ] } },
{ "type": "Feature", "properties": { "site_no": "18669", "road_name": "Midlands Rd", "location_d": "N of North Boundary Rd", "traffic_ye": "2014\/15", "collection": "Class", "mon_sun": 330.0, "mon_fri": 370.0, "pct_heavy_": 21.5, "pct_heavy1": 23.5, "network_pe": "No", "lg_no": "501", "lg_name": "Carnamah", "ra_no": 14, "ra_name": "Mid West-Gascoyne" }, "geometry": { "type": "Point", "coordinates": [ 115.822783031000085, -29.577141021999974 ] } },
{ "type": "Feature", "properties": { "site_no": "2025", "road_name": "Farrall Rd", "location_d": "N of Morrison Rd", "traffic_ye": "2013\/14", "collection": "Class", "mon_sun": 6310.0, "mon_fri": 6700.0, "pct_heavy_": 4.6, "pct_heavy1": 5.3, "network_pe": "No", "lg_no": "109", "lg_name": "Swan (C)", "ra_no": 7, "ra_name": "Metropolitan" }, "geometry": { "type": "Point", "coordinates": [ 116.033480957000052, -31.881923034999939 ] } },
{ "type": "Feature", "properties": { "site_no": "18674", "road_name": "Chapman Rd", "location_d": "N of Snowdon St", "traffic_ye": "2014\/15", "collection": "Class", "mon_sun": 13260.0, "mon_fri": 14910.0, "pct_heavy_": 6.6, "pct_heavy1": 7.3, "network_pe": "No", "lg_no": "505", "lg_name": "Greater Geraldton (C)", "ra_no": 14, "ra_name": "Mid West-Gascoyne" }, "geometry": { "type": "Point", "coordinates": [ 114.613752006000027, -28.769941968999944 ] } },
{ "type": "Feature", "properties": { "site_no": "18683", "road_name": "Jenark Rd", "location_d": "N of Baghdad Ct", "traffic_ye": "2013\/14", "collection": "Class", "mon_sun": 2120.0, "mon_fri": 2370.0, "pct_heavy_": 19.5, "pct_heavy1": 21.7, "network_pe": "No", "lg_no": "505", "lg_name": "Greater Geraldton (C)", "ra_no": 14, "ra_name": "Mid West-Gascoyne" }, "geometry": { "type": "Point", "coordinates": [ 114.650830019000068, -28.764430039999979 ] } },
{ "type": "Feature", "properties": { "site_no": "18688", "road_name": "John Willcock Link", "location_d": "W of Elliot St Access Rd", "traffic_ye": "2014\/15", "collection": "Class", "mon_sun": 4010.0, "mon_fri": 4240.0, "pct_heavy_": 23.9, "pct_heavy1": 25.0, "network_pe": "No", "lg_no": "505", "lg_name": "Greater Geraldton (C)", "ra_no": 14, "ra_name": "Mid West-Gascoyne" }, "geometry": { "type": "Point", "coordinates": [ 114.599286006000042, -28.789191995999943 ] } },
{ "type": "Feature", "properties": { "site_no": "18694", "road_name": "Brand Hwy", "location_d": "S of Greenough River Rd", "traffic_ye": "2010\/11", "collection": "Class", "mon_sun": 3590.0, "mon_fri": 3570.0, "pct_heavy_": 16.2, "pct_heavy1": 18.4, "network_pe": "No", "lg_no": "505", "lg_name": "Greater Geraldton (C)", "ra_no": 14, "ra_name": "Mid West-Gascoyne" }, "geometry": { "type": "Point", "coordinates": [ 114.659472982000011, -28.861102001999939 ] } },
{ "type": "Feature", "properties": { "site_no": "18696", "road_name": "Chapman Valley Rd", "location_d": "N of Morrell Rd", "traffic_ye": "2013\/14", "collection": "Class", "mon_sun": 720.0, "mon_fri": 710.0, "pct_heavy_": 10.5, "pct_heavy1": 13.0, "network_pe": "No", "lg_no": "516", "lg_name": "Chapman Valley", "ra_no": 14, "ra_name": "Mid West-Gascoyne" }, "geometry": { "type": "Point", "coordinates": [ 114.714920036000095, -28.64814597599997 ] } },
{ "type": "Feature", "properties": { "site_no": "18699", "road_name": "Mount Magnet Sandstone Rd", "location_d": "W of Hack St", "traffic_ye": "2010\/11", "collection": "Class", "mon_sun": 200.0, "mon_fri": 210.0, "pct_heavy_": 34.4, "pct_heavy1": 34.3, "network_pe": "No", "lg_no": "704", "lg_name": "Mount Magnet", "ra_no": 14, "ra_name": "Mid West-Gascoyne" }, "geometry": { "type": "Point", "coordinates": [ 118.712112006000098, -28.010580985999979 ] } },
{ "type": "Feature", "properties": { "site_no": "1870", "road_name": "Stirling Hwy", "location_d": "S of Eric St", "traffic_ye": "2013\/14", "collection": "Volume", "mon_sun": 31880.0, "mon_fri": 33760.0, "pct_heavy_": 0.0, "pct_heavy1": 0.0, "network_pe": "No", "lg_no": "116", "lg_name": "Cottesloe (T)", "ra_no": 7, "ra_name": "Metropolitan" }, "geometry": { "type": "Point", "coordinates": [ 115.768037985000092, -31.990057975999949 ] } },
{ "type": "Feature", "properties": { "site_no": "18705", "road_name": "Agnew Sandstone Rd", "location_d": "E of Booylgoo Springs Rd", "traffic_ye": "2014\/15", "collection": "Class", "mon_sun": 90.0, "mon_fri": 100.0, "pct_heavy_": 50.3, "pct_heavy1": 50.8, "network_pe": "No", "lg_no": "701", "lg_name": "Sandstone", "ra_no": 5, "ra_name": "Goldfields - Esperance" }, "geometry": { "type": "Point", "coordinates": [ 119.56127695400005, -27.947881990999971 ] } },
{ "type": "Feature", "properties": { "site_no": "18707", "road_name": "Narra Tarra Moonyoonooka Rd", "location_d": "N of Geraldton Mount Magnet Rd", "traffic_ye": "2013\/14", "collection": "Class", "mon_sun": 440.0, "mon_fri": 430.0, "pct_heavy_": 13.1, "pct_heavy1": 16.8, "network_pe": "No", "lg_no": "505", "lg_name": "Greater Geraldton (C)", "ra_no": 14, "ra_name": "Mid West-Gascoyne" }, "geometry": { "type": "Point", "coordinates": [ 114.721107986000106, -28.780837997999981 ] } },
{ "type": "Feature", "properties": { "site_no": "18708", "road_name": "Narra Tarra Moonyoonooka Rd", "location_d": "N of Giles Rd", "traffic_ye": "2009\/10", "collection": "Class", "mon_sun": 350.0, "mon_fri": 320.0, "pct_heavy_": 15.5, "pct_heavy1": 21.1, "network_pe": "No", "lg_no": "505", "lg_name": "Greater Geraldton (C)", "ra_no": 14, "ra_name": "Mid West-Gascoyne" }, "geometry": { "type": "Point", "coordinates": [ 114.720869988000118, -28.773669964999954 ] } },